"","ID","REGION","SUBREGION","COUNTRY","SITE_CODE","IUCNCAT_CODE","LAT","LON","YEAR_ESTABLISH","TYPE","CODE","NAME","MARINE_EXISTING","LITTORAL_EXISTING","CORAL_EXISTING","REEF_AREA_SIZE","SEAGRASS_EXISTING","MANGROVE_EXISTING","COUNTRY_CODE"
"1",609,"","","",166936,"II",-6.23232,71.316667,1998,"Strict Nature Reserve","SNR","Cow Island",1,1,1,11268,0,0,"British In"
"2",602,"","","",166935,"II",-6.38697,71.266667,1998,"Strict Nature Reserve","SNR","Danger Island",1,1,1,13304,0,0,"British In"
"3",635,"","","",166938,"II",-5.333333,71.883333,1998,"Strict Nature Reserve","SNR","Eastern Peros Banhos Atoll",1,1,1,82290,0,0,"British In"
"4",627,"","","",166937,"II",-5.67959,72.333333,1998,"Strict Nature Reserve","SNR","Nelson Island",1,1,1,11892,0,0,"British In"
"5",2090,"","","",12043,"IV",22.85,59.833,1991,"Reserve","R","Ra's Al Hadd Turtle Reserve",1,1,0,8000,0,0,"PMN"
"6",611,"","","",166933,"II",-6.116667,71.55,1998,"Strict Nature Reserve","SNR","Three Brothers and Resurgent Islands",1,1,1,18694,0,0,"British In"
"7",1886,"","","Mauritania",797,"II",20.073999,-16.409,1976,"National Park","NP","Banc d'Arguin",1,1,0,1173000,1,1,"MRT"
"8",403,"","","St. Helena",18104,"IV",-15.967,-5.733,1955,"Forest Reserve","FoR","High Peak",0,1,0,6,0,0,"SHN"
"9",1125,"","","Suriname",281,"IV",5.958776,-55.70941,1966,"Nature Reserve","NR","Coppename Monding",0,1,0,12000,0,1,"SUR"
"10",1113,"","","Suriname",282,"IV",5.773916,-54.01688,1969,"Nature Reserve","NR","Galibi",0,1,0,4000,0,1,"SUR"
"11",1121,"","","Suriname",280,"IV",5.898682,-54.50682,1961,"Nature Reserve","NR","Wia-wia",0,1,0,36000,0,1,"SUR"
"12",581,"","","United Kingdom",166939,"V",-7.383333,72.466667,1994,"Restricted Area","RestA","Diego Garcia",1,1,1,0,1,0,"GBR"
"13",769,"Africa","Eastern Africa","Kenya",2417,"VI",-1.598952,41.30087,1976,"National Reserve","NaR","Boni",0,1,0,133900,0,0,"KEN"
"14",661,"Africa","Eastern Africa","Kenya",7423,"VI",-4.337042,39.590865,1993,"Marine National Reserve","MNaR","Diani",1,1,1,7500,0,1,"KEN"
"15",762,"Africa","Eastern Africa","Kenya",2591,"VI",-1.844976,41.12919,1976,"National Reserve","NaR","Dodori",0,1,0,87739,0,1,"KEN"
"16",646,"Africa","Eastern Africa","Kenya",763,"II",-4.714003,39.362465,1978,"Marine National Park","MNP","Kisite",1,1,1,2800,0,0,"KEN"
"17",736,"Africa","Eastern Africa","Kenya",3038,"VI",-1.945282,41.214438,1979,"Marine National Reserve","MNaR","Kiunga",1,1,1,25000,0,1,"KEN"
"18",700,"Africa","Eastern Africa","Kenya",765,"II",-3.255604,40.143339,1968,"Marine National Park","MNP","Malindi",1,1,1,630,1,1,"KEN"
"19",694,"Africa","Eastern Africa","Kenya",2594,"VI",-3.333056,40.066944,1968,"Marine National Reserve","MNaR","Malindi-Watamu",1,1,1,17700,1,1,"KEN"
"20",672,"Africa","Eastern Africa","Kenya",12345,"VI",-4.060541,39.777926,1986,"Marine National Reserve","MNaR","Mombasa",1,1,1,20000,0,1,"KEN"
"21",674,"Africa","Eastern Africa","Kenya",14013,"II",-3.986343,39.761507,1986,"Marine National Park","MNP","Mombasa",1,1,1,1000,0,1,"KEN"
"22",648,"Africa","Eastern Africa","Kenya",19568,"VI",-4.692143,39.409538,1978,"Marine National Reserve","MNaR","Mpunguti",1,0,1,1100,0,0,"KEN"
"23",675,"Africa","Eastern Africa","Kenya",7676,"Unknown",-3.958644,39.51654,1938,"Forest Reserve","FoR","Mwachi",0,1,0,381,0,1,"KEN"
"24",692,"Africa","Eastern Africa","Kenya",19566,"II",-3.385354,39.98955,1968,"Marine National Park","MNP","Watamu",1,1,1,12500,0,1,"KEN"
"25",285,"Africa","Eastern Africa","Mozambique",802,"II",-21.716667,35.433333,1971,"National Park","NP","Bazaruto",1,1,1,15000,1,1,"MOZ"
"26",157,"Africa","Eastern Africa","Mozambique",7937,"IV",-26.049999,32.950001,1965,"Faunal Reserve","FR","Ilhas da Inhaca e dos Portugueses",1,1,1,2000,1,1,"MOZ"
"27",150,"Africa","Eastern Africa","Mozambique",4652,"IV",-26.421,32.806999,1969,"Game Reserve","GR","Maputo",0,1,0,90000,0,1,"MOZ"
"28",346,"Africa","Eastern Africa","Mozambique",4649,"IV",-19,35,1969,"Game Reserve","GR","Marromeu",1,1,0,1000000,1,1,"MOZ"
"29",238,"Africa","Eastern Africa","Mozambique",4653,"IV",-23,35,1972,"Game Reserve","GR","Pomene",1,1,0,10000,0,1,"MOZ"
"30",347,"Africa","Eastern Africa","Mozambique",7935,"VI",-19,35,1981,"Wildlife Utilization Area","WUA","Zambezi",1,1,0,1000000,1,1,"MOZ"
"31",781,"Africa","Eastern Africa","Somalia",13710,"VI",-1.35,41.3,1969,"Game Reserve","GR","Bushbush",1,1,1,334000,0,1,"SOM"
"32",782,"Africa","Eastern Africa","Somalia",13714,"Unknown",-1.35,41.3,1969,"Controlled Hunting Area","CHA","Bushbush",1,1,0,0,0,0,"SOM"
"33",780,"Africa","Eastern Africa","Somalia",872,"Unknown",-1.375004,41.57755,0,"National Park","NP","Lag Badana-Bushbush",1,1,1,334000,0,1,"SOM"
"34",105,"Africa","Eastern Africa","South Africa",26045,"IV",-29.783333,31.05,1977,"Nature Reserve","NR","Beachwood Mangroves",0,1,0,76,0,1,"ZAF"
"35",15,"Africa","Eastern Africa","South Africa",32827,"IV",-34.533333,20.5,1986,"Marine Reserve","MR","De Hoop",1,1,0,23000,0,0,"ZAF"
"36",16,"Africa","Eastern Africa","South Africa",4029,"IV",-34.5,20.466667,1956,"Nature Reserve","NR","De Hoop",0,1,0,40000,0,0,"ZAF"
"37",71,"Africa","Eastern Africa","South Africa",9081,"II",-32.283292,28.815906,1975,"Wildlife Reserve","WR","Dwesa-Cwebe",0,1,0,5707,0,1,"ZAF"
"38",90,"Africa","Eastern Africa","South Africa",32930,"IV",-31.633333,18.116667,1988,"Other area","ETC","Elephant Rock",1,0,0,1,0,0,"ZAF"
"39",28,"Africa","Eastern Africa","South Africa",4026,"IV",-34.016667,22.833333,1960,"Nature Reserve","NR","Goukamma",0,1,0,2170,0,0,"ZAF"
"40",124,"Africa","Eastern Africa","South Africa",116275,"II",-28.1,32.45,1895,"Wetland Park","wp","Greater St. Lucia",1,1,1,258686,0,0,"ZAF"
"41",32,"Africa","Eastern Africa","South Africa",32952,"IV",-33.833333,18.416667,0,"Sanctuary","S","Melkbos-Houtbay Rock Lobster",1,0,0,83400,0,0,"ZAF"
"42",95,"Africa","Eastern Africa","South Africa",32449,"Unknown",-31.25,30,1977,"Wildlife Reserve","WR","Mkambati",0,1,0,6120,0,0,"ZAF"
"43",104,"Africa","Eastern Africa","South Africa",13307,"IV",-29.833333,32.016667,1935,"Nature Reserve","NR","Richards Bay",0,1,0,1200,0,0,"ZAF"
"44",23,"Africa","Eastern Africa","South Africa",32839,"IV",-34.083333,23.366667,1945,"Nature Reserve","NR","Robberg",0,1,0,170,0,0,"ZAF"
"45",66,"Africa","Eastern Africa","South Africa",32840,"IV",-32.6,18.283333,1968,"Nature Reserve","NR","Rocherpan",0,1,0,914,0,0,"ZAF"
"46",57,"Africa","Eastern Africa","South Africa",21167,"IV",-33.033333,17.966667,0,"Sanctuary","S","Saldanha Bay Rock Lobster",1,1,0,83400,0,0,"ZAF"
"47",63,"Africa","Eastern Africa","South Africa",21168,"IV",-32.75,18.05,0,"Sanctuary","S","St. Helena Bay Rock Lobster",1,1,0,14000,0,0,"ZAF"
"48",98,"Africa","Eastern Africa","South Africa",71057,"IV",-30.95,30.283333,1979,"Marine Reserve","MR","Trafalgar",1,0,0,251,0,0,"ZAF"
"49",26,"Africa","Eastern Africa","South Africa",881,"II",-34.05,23.666667,1964,"National Park","NP","Tsitsikamma",1,1,0,63942,0,0,"ZAF"
"50",114,"Africa","Eastern Africa","South Africa",26030,"IV",-28.8,31.783333,1948,"Nature Reserve","NR","Umlalazi",0,1,0,1028,0,1,"ZAF"
"51",97,"Africa","Eastern Africa","South Africa",1353,"IV",-31,30.166667,1971,"Nature Reserve","NR","Umtamvuna",0,1,0,3257,0,1,"ZAF"
"52",9,"Africa","Eastern Africa","South Africa",9070,"IV",-34.666667,19.333333,1895,"State Forest","SFo","Walker Bay",0,1,0,6734,0,0,"ZAF"
"53",52,"Africa","Eastern Africa","South Africa",17368,"II",-33.2,18.133333,1985,"National Park","NP","West Coast",1,1,0,32494,0,0,"ZAF"
"54",597,"Africa","Eastern Africa","Tanzania",35266,"II",-6.616667,39.266667,1975,"Marine Reserve","MR","Bongoyo Island",1,1,1,0,0,1,"TZA"
"55",564,"Africa","Eastern Africa","Tanzania",35268,"Unknown",-7.983056,39.6,1981,"Marine Reserve","MR","Chole Bay",1,1,1,0,0,1,"TZA"
"56",605,"Africa","Eastern Africa","Tanzania",72397,"II",-6.271,39.175833,1994,"Marine Sanctuary","MS","Chumbe Island Coral Park (CHICOP)",1,1,1,30,1,0,"TZA"
"57",599,"Africa","Eastern Africa","Tanzania",35267,"II",-6.6,39.233333,1975,"Marine Reserve","MR","Fungu Yasini",1,1,1,0,0,1,"TZA"
"58",561,"Africa","Eastern Africa","Tanzania",81037,"VI",-8.016667,39.666667,1995,"Marine Park","MP","Mafia Island",1,1,1,82200,1,1,"TZA"
"59",632,"Africa","Eastern Africa","Tanzania",12855,"II",-5.53388,39.816944,1981,"Marine Reserve","MR","Maziwi Island",1,0,1,0,0,0,"TZA"
"60",594,"Africa","Eastern Africa","Tanzania",12853,"II",-6.658333,39.25,1975,"Marine Reserve","MR","Mbudya",1,1,1,0,0,1,"TZA"
"61",603,"Africa","Eastern Africa","Tanzania",198282,"VI",-6.316667,39.316667,1997,"Conservation Area","CA","Menai Bay",1,1,1,47000,0,0,"TZA"
"62",637,"Africa","Eastern Africa","Tanzania",220233,"VI",-5.27277,39.633333,1998,"Conservation Area","CA","Misali Island",1,1,1,2158,1,1,"TZA"
"63",501,"Africa","Eastern Africa","Tanzania",220235,"VI",-10.316667,40.316667,2000,"Marine Park","MP","Mnazi Bay",1,1,1,65000,0,1,"TZA"
"64",623,"Africa","Eastern Africa","Tanzania",220234,"VI",-5.816667,39.4,1997,"Conservation Area","CA","Mnemba",1,1,1,15,0,0,"TZA"
"65",600,"Africa","Eastern Africa","Tanzania",198283,"II",-6.591667,39.238889,1975,"Marine Reserve","MR","Pangavini",1,0,1,0,0,0,"TZA"
"66",616,"Africa","Eastern Africa","Tanzania",7434,"IV",-5.988544,38.75345,1968,"Game Reserve","GR","Saadani",0,1,0,30000,0,1,"TZA"
"67",557,"Africa","Eastern Africa","Tanzania",35269,"Unknown",-8.116944,39.65,1981,"Marine Reserve","MR","Tutia Island",1,1,1,0,0,1,"TZA"
"68",433,"Africa","Southwest Indian Ocean","Madagascar",2311,"Ia",-13.406,48.314999,1927,"Strict Nature Reserve","SNR","Lokobe",0,1,0,740,0,0,"MDG"
"69",401,"Africa","Southwest Indian Ocean","Madagascar",26072,"II",-16.316999,49.849998,1989,"National Park","NP","Mananara Marine",1,1,1,1000,0,1,"MDG"
"70",326,"Africa","Southwest Indian Ocean","Mauritius",9159,"Unknown",-20.07909,57.5107,0,"Marine National Park","MNP","Baie de l'Arsenal Marine National Park",1,1,1,100,1,0,"MUS"
"71",317,"Africa","Southwest Indian Ocean","Mauritius",9158,"IV",-20.364,57.355,1983,"Fishing Reserve","FiR","Black River",1,1,1,900,0,1,"MUS"
"72",328,"Africa","Southwest Indian Ocean","Mauritius",5052,"IV",-19.938,57.612999,1970,"Nature Reserve","NR","Coin de Mire (Gunner's Quoin)",0,1,0,76,0,0,"MUS"
"73",325,"Africa","Southwest Indian Ocean","Mauritius",9155,"IV",-20.142,57.743,1983,"Fishing Reserve","FiR","Flacq",1,1,1,600,1,1,"MUS"
"74",315,"Africa","Southwest Indian Ocean","Mauritius",9157,"IV",-20.367001,57.700001,1983,"Fishing Reserve","FiR","Grand Port - Mahebourg",1,1,1,2200,0,1,"MUS"
"75",314,"Africa","Southwest Indian Ocean","Mauritius",5054,"IV",-20.417,57.726002,1965,"Nature Reserve","NR","Ile aux Aigrettes",1,1,0,25,0,0,"MUS"
"76",335,"Africa","Southwest Indian Ocean","Mauritius",5055,"IV",-19.716999,63.283001,1981,"Nature Reserve","NR","Ile aux Cocos",0,1,0,15,0,0,"MUS"
"77",336,"Africa","Southwest Indian Ocean","Mauritius",5056,"IV",-19.700001,63.299999,1981,"Nature Reserve","NR","Ile aux Sables",0,1,0,8,0,0,"MUS"
"78",332,"Africa","Southwest Indian Ocean","Mauritius",9152,"Ia",-19.815001,57.799,1983,"Nature Reserve","NR","Ile aux Serpents",0,1,0,31,0,0,"MUS"
"79",330,"Africa","Southwest Indian Ocean","Mauritius",5051,"IV",-19.874001,57.648998,1972,"Nature Reserve","NR","Ile Plate (Flat Island)",1,1,0,253,0,0,"MUS"
"80",331,"Africa","Southwest Indian Ocean","Mauritius",1305,"IV",-19.848,57.780998,1957,"Nature Reserve","NR","Ile Ronde (Round Island)",0,1,0,159,0,0,"MUS"
"81",329,"Africa","Southwest Indian Ocean","Mauritius",5050,"IV",-19.882999,57.665001,1972,"Nature Reserve","NR","Ilot Gabriel",0,1,0,42,0,0,"MUS"
"82",316,"Africa","Southwest Indian Ocean","Mauritius",5053,"IV",-20.367001,57.783001,1972,"Nature Reserve","NR","Ilot Marianne",1,1,0,2,0,0,"MUS"
"83",324,"Africa","Southwest Indian Ocean","Mauritius",9153,"IV",-20.148001,57.476002,1983,"Fishing Reserve","FiR","Port Louis",1,0,1,500,1,0,"MUS"
"84",327,"Africa","Southwest Indian Ocean","Mauritius",9154,"IV",-20.069,57.707001,1983,"Fishing Reserve","FiR","Riviere du Rampart - Poudre d'Or",1,1,1,3500,0,1,"MUS"
"85",321,"Africa","Southwest Indian Ocean","Mauritius",9156,"IV",-20.257999,57.791,1983,"Fishing Reserve","FiR","Trou d'Eau Douce Fir",1,1,1,700,1,1,"MUS"
"86",322,"Africa","Southwest Indian Ocean","Mauritius",9156,"IV",-20.257999,57.791,1983,"Fishing Reserve","FiR","Trou d'Eau Douce Fir",1,1,1,700,1,1,"MUS"
"87",438,"Africa","Southwest Indian Ocean","Mayotte",29794,"VI",-12.85,45.25,1990,"Strict Fishing Reserve","SFiR","Passe de Longogori",1,1,1,450,0,0,"MYT"
"88",436,"Africa","Southwest Indian Ocean","Mayotte",29798,"II",-12.967,45.200001,1991,"Park","P","Saziley",1,1,1,4180,0,0,"MYT"
"89",296,"Africa","Southwest Indian Ocean","Réunion",220232,"VI",-21.25,55.233333,1998,"Marine Park","MP","Cap la Houssaye - Saint Joseph",1,0,1,0,0,0,"REU"
"90",307,"Africa","Southwest Indian Ocean","Réunion",19778,"VI",-21,55.233333,1978,"Fishing Reserve","FiR","Cap la Houssaye-Ravine Trois Bassins",1,0,1,0,1,0,"REU"
"91",402,"Africa","Southwest Indian Ocean","Réunion",11736,"IV",-16,54,1975,"Nature Reserve","NR","Ile Tromelin",1,1,1,0,0,0,"REU"
"92",510,"Africa","Southwest Indian Ocean","Réunion",11737,"IV",-10,48,1975,"Nature Reserve","NR","Iles Glorieuses",1,1,1,0,1,0,"REU"
"93",293,"Africa","Southwest Indian Ocean","Réunion",11739,"IV",-21.45637,40,1975,"Nature Reserve","NR","Ilot de Bassas Da India",1,1,1,0,0,1,"REU"
"94",269,"Africa","Southwest Indian Ocean","Réunion",11738,"IV",-22.32882,40,1975,"Nature Reserve","NR","Ilot d'Europa",1,1,1,0,1,1,"REU"
"95",383,"Africa","Southwest Indian Ocean","Réunion",220237,"IV",-17.05,42.733333,1975,"Nature Reserve","NR","Juan de Nova",1,0,1,0,0,0,"REU"
"96",297,"Africa","Southwest Indian Ocean","Réunion",71044,"VI",-21.25,55.35,1992,"Fishing Reserve","FiR","L'Etang",1,0,1,0,0,0,"REU"
"97",299,"Africa","Southwest Indian Ocean","Réunion",71045,"VI",-21.15,55.316667,1992,"Fishing Reserve","FiR","Saint-Leu",1,0,1,0,0,0,"REU"
"98",295,"Africa","Southwest Indian Ocean","Réunion",71048,"VI",-21.316667,55.483333,1992,"Fishing Reserve","FiR","Saint-Pierre",1,0,1,0,0,0,"REU"
"99",303,"Africa","Southwest Indian Ocean","Réunion",71046,"VI",-21.066667,55.225,1992,"Fishing Reserve","FiR","Saline l'Hermitage (lagoon)",1,0,1,0,0,0,"REU"
"100",304,"Africa","Southwest Indian Ocean","Réunion",71047,"VI",-21.066667,55.216667,1992,"Fishing Reserve","FiR","Saline l'Hermitage (Reef)",1,0,1,0,0,0,"REU"
"101",518,"Africa","Southwest Indian Ocean","Seychelles",1342,"Ia",-9.418707,46.343485,1981,"Special Nature Reserve","SpNR","Aldabra",1,1,1,35000,0,1,"SYC"
"102",667,"Africa","Southwest Indian Ocean","Seychelles",6941,"Ia",-4.206,55.667,1973,"Special Nature Reserve","SpNR","Aride Island",1,1,1,70,0,0,"SYC"
"103",653,"Africa","Southwest Indian Ocean","Seychelles",9141,"II",-4.635478,55.375047,1979,"Marine National Park","MNP","Baie Ternaie",1,1,1,80,0,0,"SYC"
"104",663,"Africa","Southwest Indian Ocean","Seychelles",6939,"Ia",-4.329117,55.663514,1975,"Special Nature Reserve","SpNR","Cousin Island",1,1,1,28,0,1,"SYC"
"105",666,"Africa","Southwest Indian Ocean","Seychelles",7391,"II",-4.288912,55.73002,1979,"Marine National Park","MNP","Curieuse",1,1,1,1470,0,1,"SYC"
"106",665,"Africa","Southwest Indian Ocean","Seychelles",12878,"Unknown",-4.31017,55.866667,1987,"Protected Area","PA","Ile Cocos",1,1,1,1,0,0,"SYC"
"107",651,"Africa","Southwest Indian Ocean","Seychelles",6936,"II",-4.649316,55.390433,1979,"Marine National Park","MNP","Port Launay",1,1,1,158,1,1,"SYC"
"108",657,"Africa","Southwest Indian Ocean","Seychelles",62230,"II",-4.463599,55.245491,1987,"Marine National Park","MNP","Silhouette",1,1,1,3045,0,1,"SYC"
"109",654,"Africa","Southwest Indian Ocean","Seychelles",6934,"II",-4.616742,55.501964,1973,"Marine National Park","MNP","St. Anne",1,1,1,1423,1,0,"SYC"
"110",955,"Africa","West Africa","Cameroon",1242,"IV",2.384715,10.09687,1932,"Faunal Reserve","FR","Campo",1,0,0,300000,0,0,"CMR"
"111",1015,"Africa","West Africa","Cameroon",1244,"IV",3.675863,9.690824,1932,"Faunal Reserve","FR","Douala-Edea",1,1,0,160000,0,1,"CMR"
"112",1016,"Africa","West Africa","Cameroon",1244,"IV",3.675863,9.690824,1932,"Faunal Reserve","FR","Douala-Edea",1,1,0,160000,0,1,"CMR"
"113",1623,"Africa","West Africa","Cape Verde Islands",20252,"Unknown",16.1333,-22.6667,1990,"Nature Reserve","NR","Ilheu Baluarte",0,1,0,50,0,0,"CPV"
"114",898,"Africa","West Africa","Equatorial Guinea",20260,"Unknown",1.115468,9.806266,1990,"Protected Area","PA","Estuario de rio Muni",0,1,0,70000,0,1,"GNQ"
"115",940,"Africa","West Africa","Equatorial Guinea",28631,"Unknown",2.103807,9.975078,1990,"Protected Area","PA","Estuario de rio Ntem (Campo)",0,1,0,20000,0,1,"GNQ"
"116",774,"Africa","West Africa","Equatorial Guinea",20269,"Unknown",1.427754,5.619911,1990,"Protected Area","PA","Isla de Annobon",0,1,0,1700,0,0,"GNQ"
"117",1006,"Africa","West Africa","Equatorial Guinea",20263,"Unknown",3.339553,8.594607,1990,"Protected Area","PA","Sur de la Isla de Bioco",0,1,0,60000,0,1,"GNQ"
"118",1092,"Africa","West Africa","Ivory Coast",7522,"II",5.221391,-4.87765,1981,"National Park","NP","Azagny",0,1,0,19000,0,1,"CIV"
"119",1098,"Africa","West Africa","Ivory Coast",725,"II",5.402923,-4.058425,1953,"National Park","NP","Banco",1,1,0,3000,0,0,"CIV"
"120",1089,"Africa","West Africa","Ivory Coast",20174,"II",5.188724,-3.242332,1974,"National Park","NP","Iles Ehotile",0,1,0,10500,0,1,"CIV"
"121",1405,"Africa","West Africa","Senegal",868,"II",12.40175,-16.59662,1970,"National Park","NP","Basse-Casamance",1,1,0,5000,0,1,"SEN"
"122",1527,"Africa","West Africa","Senegal",866,"II",13.723,-16.708,1976,"National Park","NP","Delta du Saloum",1,1,0,76000,0,1,"SEN"
"123",1610,"Africa","West Africa","Senegal",11653,"IV",15.916667,-16.466667,1983,"Faunal Reserve","FR","Gueumbeul Special",1,0,0,750,0,0,"SEN"
"124",1572,"Africa","West Africa","Senegal",870,"II",14.655,-17.472,1949,"National Park","NP","Iles de la Madeleine",1,1,0,450,0,0,"SEN"
"125",1419,"Africa","West Africa","Senegal",3217,"IV",12.666667,-16.75,1978,"Special Reserve","SpR","Kalissaye",1,1,0,16,0,0,"SEN"
"126",1589,"Africa","West Africa","Senegal",869,"II",14.916667,-16.5,1976,"National Park","NP","Langue de Barbarie",1,1,0,2000,0,0,"SEN"
"127",1570,"Africa","West Africa","Senegal",12263,"IV",14.565,-17.131001,1986,"Faunal Reserve","FR","Popenguine Special",0,1,0,1009,0,0,"SEN"
"128",1720,"Americas","Eastern Caribbean","Anguilla",32642,"Unknown",18.23008,-63.073,0,"Fish Nursery Reserve","FNR","Little Bay",1,0,1,0,0,0,"AIA"
"129",1770,"Americas","Eastern Caribbean","Anguilla",14074,"Unknown",18.5,-63.1167,0,"Marine Park","MP","Sandy Island",1,1,1,0,0,0,"AIA"
"130",1726,"Americas","Eastern Caribbean","Anguilla",32636,"Unknown",18.279,-63.166,0,"Marine Park","MP","Seal Island and Prickly Pear Cay East",1,1,1,0,0,0,"AIA"
"131",1729,"Americas","Eastern Caribbean","Anguilla",14075,"Unknown",18.2833,-63.0333,0,"Marine Park","MP","Shoal Bay",1,1,1,0,0,0,"AIA"
"132",1655,"Americas","Eastern Caribbean","Antigua and Barbuda",31538,"Unknown",17,-61.866667,1999,"Marine Reserve","MR","Cades Bay",1,1,1,0,1,1,"ATG"
"133",1665,"Americas","Eastern Caribbean","Antigua and Barbuda",31541,"Unknown",17.1,-61.716667,0,"Marine Park","MP","Crump Island Coral Reef",1,0,1,0,0,0,"ATG"
"134",1661,"Americas","Eastern Caribbean","Antigua and Barbuda",61687,"V",17.033001,-61.867001,0,"Park Reserve","PRes","Darkwood",1,0,0,0,0,0,"ATG"
"135",1668,"Americas","Eastern Caribbean","Antigua and Barbuda",1,"II",17.195999,-61.862,1973,"Marine Park","MP","Diamond Reef",1,1,1,2000,0,0,"ATG"
"136",1669,"Americas","Eastern Caribbean","Antigua and Barbuda",1,"II",17.195999,-61.862,1973,"Marine Park","MP","Diamond Reef",1,1,1,2000,0,0,"ATG"
"137",1663,"Americas","Eastern Caribbean","Antigua and Barbuda",61688,"V",17.049999,-61.882999,0,"Park Reserve","PRes","Ffryes Bay",1,0,0,0,0,0,"ATG"
"138",1664,"Americas","Eastern Caribbean","Antigua and Barbuda",14504,"IV",17.066999,-61.667,0,"Park Reserve","PRes","Green Island Reefs",1,1,1,0,0,0,"ATG"
"139",1662,"Americas","Eastern Caribbean","Antigua and Barbuda",31547,"II",17.033001,-61.682999,0,"National Park","NP","Half Moon Bay",0,1,0,0,0,0,"ATG"
"140",1659,"Americas","Eastern Caribbean","Antigua and Barbuda",12760,"II",17.009001,-61.782001,1984,"National Park","NP","Nelson's Dockyard",1,1,1,4128,0,1,"ATG"
"141",1666,"Americas","Eastern Caribbean","Antigua and Barbuda",31518,"IV",17.132999,-61.733002,0,"Park Reserve","PRes","Northeast Archipelago",1,0,1,0,0,0,"ATG"
"142",1680,"Americas","Eastern Caribbean","Antigua and Barbuda",2,"II",17.518999,-61.747002,1973,"Marine National Park","MNP","Palaster Reef",1,0,1,500,0,0,"ATG"
"143",1681,"Americas","Eastern Caribbean","Antigua and Barbuda",2,"II",17.518999,-61.747002,1973,"Marine National Park","MNP","Palaster Reef",1,0,1,500,0,0,"ATG"
"144",1682,"Americas","Eastern Caribbean","Antigua and Barbuda",2,"II",17.518999,-61.747002,1973,"Marine National Park","MNP","Palaster Reef",1,0,1,500,0,0,"ATG"
"145",1475,"Americas","Eastern Caribbean","Barbados",61774,"IV",13.267,-59.599998,0,"Wildlife Reserve","WR","Barbados WR",1,0,0,0,0,0,"BRB"
"146",1469,"Americas","Eastern Caribbean","Barbados",61773,"IV",13.2,-59.567001,0,"Private Reserve","PrivR","Flower Forest",1,0,0,22,0,0,"BRB"
"147",251,"Americas","Eastern Caribbean","Barbados",27,"II",-22.516667,166.75,1980,"Marine Reserve","MR","Folkestone",1,1,1,230,0,0,"BRB"
"148",1598,"Americas","Eastern Caribbean","Dominica",11844,"II",15.583,-61.483002,1986,"National Park","NP","Cabrits",1,1,1,531,1,1,"DMA"
"149",1594,"Americas","Eastern Caribbean","Dominica",37117,"V",15.23,-61.383333,0,"Marine Reserve","MR","Soufriere/Scott's Head",1,0,1,0,0,0,"DMA"
"150",1632,"Americas","Eastern Caribbean","Guadeloupe",19270,"IV",16.358,-61.587002,1987,"Nature Reserve","NR","Grand Cul de Sac Marin",1,1,1,3736,1,1,"GLP"
"151",1633,"Americas","Eastern Caribbean","Guadeloupe",19270,"IV",16.358,-61.587002,1987,"Nature Reserve","NR","Grand Cul de Sac Marin",1,1,1,3736,1,1,"GLP"
"152",1634,"Americas","Eastern Caribbean","Guadeloupe",19270,"IV",16.358,-61.587002,1987,"Nature Reserve","NR","Grand Cul de Sac Marin",1,1,1,3736,1,1,"GLP"
"153",1635,"Americas","Eastern Caribbean","Guadeloupe",19270,"IV",16.358,-61.587002,1987,"Nature Reserve","NR","Grand Cul de Sac Marin",1,1,1,3736,1,1,"GLP"
"154",1636,"Americas","Eastern Caribbean","Guadeloupe",19270,"IV",16.358,-61.587002,1987,"Nature Reserve","NR","Grand Cul de Sac Marin",1,1,1,3736,1,1,"GLP"
"155",1637,"Americas","Eastern Caribbean","Guadeloupe",19270,"IV",16.358,-61.587002,1987,"Nature Reserve","NR","Grand Cul de Sac Marin",1,1,1,3736,1,1,"GLP"
"156",1626,"Americas","Eastern Caribbean","Guadeloupe",33422,"V",16.16,-61.756001,1989,"Buffer Zone","BZ","Guadeloupe",0,1,0,16200,0,0,"GLP"
"157",1625,"Americas","Eastern Caribbean","Guadeloupe",220170,"IV",16.15513,-61.116667,1998,"Nature Reserve","NR","Petite-Terre",1,1,1,990,0,0,"GLP"
"158",1627,"Americas","Eastern Caribbean","Guadeloupe",31327,"Unknown",16.17714,-61.78475,0,"Nature Reserve","NR","Pigeon/Malendure",1,1,1,200,0,0,"GLP"
"159",1695,"Americas","Eastern Caribbean","Guadeloupe",147314,"IV",17.93,-62.833333,1996,"Nature Reserve (by Decree)","FR03","Saint BarthTlemy",1,0,1,1200,0,0,"GLP"
"160",1712,"Americas","Eastern Caribbean","Guadeloupe",61705,"IV",18.12,-63,1998,"Nature Reserve","NR","Saint-Martin",1,1,1,3060,0,0,"GLP"
"161",1563,"Americas","Eastern Caribbean","Martinique",61759,"Unknown",14.4167,-60.85,1986,"Registered Site","RS","Baie des Anglais",1,0,0,654,0,0,"MTQ"
"162",1583,"Americas","Eastern Caribbean","Martinique",204,"IV",14.755,-60.908001,1976,"Nature Reserve","NR","Caravelle",1,1,1,422,1,1,"MTQ"
"163",1584,"Americas","Eastern Caribbean","Martinique",32756,"IV",14.767,-60.900002,1988,"Littoral Conservation Area (Lithuania)","LtCA","Caravelle",1,1,1,257,0,1,"MTQ"
"164",1568,"Americas","Eastern Caribbean","Martinique",32753,"Unknown",14.5,-60.8167,1982,"Littoral Conservation Area (Lithuania)","LtCA","Grand Macabou",1,1,1,113,0,1,"MTQ"
"165",1564,"Americas","Eastern Caribbean","Martinique",32758,"IV",14.417,-60.833,1995,"Nature Reserve","NR","Ilets de Sainte Anne",0,1,0,5,0,0,"MTQ"
"166",1579,"Americas","Eastern Caribbean","Martinique",7170,"V",14.75,-61.132,1976,"Regional Nature Park","RNaP","Martinique",0,1,0,70150,0,1,"MTQ"
"167",1580,"Americas","Eastern Caribbean","Martinique",7170,"V",14.75,-61.132,1976,"Regional Nature Park","RNaP","Martinique",0,1,0,70150,0,1,"MTQ"
"168",1581,"Americas","Eastern Caribbean","Martinique",7170,"V",14.75,-61.132,1976,"Regional Nature Park","RNaP","Martinique",0,1,0,70150,0,1,"MTQ"
"169",1582,"Americas","Eastern Caribbean","Martinique",7170,"V",14.75,-61.132,1976,"Regional Nature Park","RNaP","Martinique",0,1,0,70150,0,1,"MTQ"
"170",1566,"Americas","Eastern Caribbean","Martinique",32757,"Unknown",14.4667,-61.0667,1988,"Littoral Conservation Area (Lithuania)","LtCA","Morne Larcher",0,1,0,64,0,0,"MTQ"
"171",1576,"Americas","Eastern Caribbean","Martinique",32759,"Unknown",14.75,-60.9333,1985,"Littoral Conservation Area (Lithuania)","LtCA","Pointe Rouge",1,1,1,54,0,0,"MTQ"
"172",1575,"Americas","Eastern Caribbean","Martinique",61764,"Unknown",14.75,-60.9167,1989,"Registered Site","RS","Presqu'ele de la Caravelle",1,0,0,415,0,0,"MTQ"
"173",1588,"Americas","Eastern Caribbean","Martinique",32754,"IV",14.85,-61.216999,1984,"Littoral Conservation Area (Lithuania)","LtCA","PrTcheur/Gd RiviFre",0,1,0,509,0,0,"MTQ"
"174",1561,"Americas","Eastern Caribbean","Martinique",61761,"Unknown",14.3833,-60.8667,1988,"Registered Site","RS","Savane des Petrifications",1,0,0,592,0,0,"MTQ"
"175",1574,"Americas","Eastern Caribbean","Martinique",61763,"Unknown",14.6833,-61.0667,1989,"Registered Site","RS","VallTe de RiviFre Blanche",1,0,0,416,0,0,"MTQ"
"176",1569,"Americas","Eastern Caribbean","Martinique",61765,"Unknown",14.5333,-61.0167,1987,"Registered Site","RS","Village de la Poterie",1,0,0,674,0,0,"MTQ"
"177",1567,"Americas","Eastern Caribbean","Martinique",61757,"Unknown",14.5,-61.0833,1989,"Registered Site","RS","Village et Morne Champagne",1,0,0,415,0,0,"MTQ"
"178",1565,"Americas","Eastern Caribbean","Martinique",61762,"Unknown",14.4667,-60.8333,1980,"Registered Site","RS","Zone des Caps",1,0,0,373,0,0,"MTQ"
"179",1646,"Americas","Eastern Caribbean","Montserrat",12710,"IV",16.716999,-62.233002,1979,"Private Reserve","PrivR","Fox's Bay Bird Sanctuary",1,1,0,6,0,1,"MSR"
"180",1388,"Americas","Eastern Caribbean","Netherlands Antilles",230,"Unknown",12.166667,-68.25,1979,"Marine Park","MP","Bonaire",1,1,1,2600,1,1,"ANT"
"181",1403,"Americas","Eastern Caribbean","Netherlands Antilles",232,"II",12.35,-69.116997,1978,"National Park","NP","Christoffel (Curacao)",0,1,0,1860,0,0,"ANT"
"182",1383,"Americas","Eastern Caribbean","Netherlands Antilles",9712,"Unknown",12.05,-68.833333,1983,"Underwater Park","UP","Curacao",1,1,1,1036,0,1,"ANT"
"183",1382,"Americas","Eastern Caribbean","Netherlands Antilles",233,"Ia",12.033,-68.25,1969,"Private Reserve","PrivR","Flamingo (Bonaire) Sanctuary",0,1,0,55,0,0,"ANT"
"184",1683,"Americas","Eastern Caribbean","Netherlands Antilles",14005,"Unknown",17.65,-63.233333,1987,"Marine Park","MP","Saba",1,1,1,820,1,1,"ANT"
"185",1684,"Americas","Eastern Caribbean","Netherlands Antilles",14005,"Unknown",17.65,-63.233333,1987,"Marine Park","MP","Saba",1,1,1,820,1,1,"ANT"
"186",1685,"Americas","Eastern Caribbean","Netherlands Antilles",14005,"Unknown",17.65,-63.233333,1987,"Marine Park","MP","Saba",1,1,1,820,1,1,"ANT"
"187",1679,"Americas","Eastern Caribbean","Netherlands Antilles",220029,"Unknown",17.467778,-62.9725,1998,"Marine Park","MP","St. Eustatius",1,0,1,0,0,0,"ANT"
"188",1392,"Americas","Eastern Caribbean","Netherlands Antilles",2190,"II",12.233,-68.383003,1969,"National Park","NP","Washington-Slagbaai (Bonaire)",0,1,0,5900,0,1,"ANT"
"189",1671,"Americas","Eastern Caribbean","St. Kitts and Nevis",31315,"II",17.25,-62.667,0,"National Park","NP","Southeast Peninsula",1,0,1,2610,0,0,"KNA"
"190",1538,"Americas","Eastern Caribbean","St. Lucia",32725,"IV",13.867,-61.083,1990,"Marine Reserve","MR","Anse Chastanet Reefs",1,1,1,0,0,0,"LCA"
"191",1543,"Americas","Eastern Caribbean","St. Lucia",32726,"IV",13.92597,-61.049999,1990,"Marine Reserve","MR","Anse Cochon artificial reef",1,0,1,0,0,0,"LCA"
"192",1544,"Americas","Eastern Caribbean","St. Lucia",32727,"IV",13.92597,-61.049999,1990,"Marine Reserve","MR","Anse Galet-Anse Cochon reefs",1,0,1,0,0,0,"LCA"
"193",1530,"Americas","Eastern Caribbean","St. Lucia",31396,"IV",13.8,-61.067001,1986,"Marine Reserve","MR","Anse L'Ivrogne Reef",1,0,1,0,0,0,"LCA"
"194",1537,"Americas","Eastern Caribbean","St. Lucia",31414,"IV",13.867,-61.083,1986,"Marine Reserve","MR","Anse Mamin Reef",1,0,1,0,0,0,"LCA"
"195",1528,"Americas","Eastern Caribbean","St. Lucia",31415,"IV",13.733,-60.932999,1986,"Marine Reserve","MR","Anse Pointe Sable-Man Kote Mangroves",1,1,1,0,0,1,"LCA"
"196",1556,"Americas","Eastern Caribbean","St. Lucia",31416,"IV",14.067,-60.950001,1986,"Marine Reserve","MR","Bois D'Orange Mangroves",0,1,0,80,0,1,"LCA"
"197",1525,"Americas","Eastern Caribbean","St. Lucia",32730,"IV",13.717,-60.950001,1990,"Marine Reserve","MR","Caesar Point to Mathurin Point reefs",1,0,1,0,0,0,"LCA"
"198",1558,"Americas","Eastern Caribbean","St. Lucia",31417,"IV",14.083,-60.932999,1986,"Marine Reserve","MR","Cas-en-Bas Mangroves",0,1,0,0,0,1,"LCA"
"199",1552,"Americas","Eastern Caribbean","St. Lucia",31418,"IV",14.034,-60.969002,1986,"Marine Reserve","MR","Choc Bay Mangroves",0,1,0,80,0,1,"LCA"
"200",1553,"Americas","Eastern Caribbean","St. Lucia",97467,"IV",14.05,-60.917,1986,"Marine Reserve","MR","Esperance Harbour Mangroves",0,1,0,0,0,1,"LCA"
"201",1542,"Americas","Eastern Caribbean","St. Lucia",31420,"IV",13.917,-60.882999,1986,"Marine Reserve","MR","Fond D'Or Beach",0,1,0,0,0,1,"LCA"
"202",1548,"Americas","Eastern Caribbean","St. Lucia",31421,"IV",14,-60.882999,1986,"Marine Reserve","MR","Grand Anse Beach and Mangrove",0,1,0,80,0,1,"LCA"
"203",1545,"Americas","Eastern Caribbean","St. Lucia",31422,"IV",13.967,-60.882999,1986,"Marine Reserve","MR","Louvet Mangroves",0,1,0,80,0,1,"LCA"
"204",1526,"Americas","Eastern Caribbean","St. Lucia",11845,"IV",13.717,-60.917,1982,"Nature Reserve","NR","Maria Islands",1,1,1,12,1,1,"LCA"
"205",1546,"Americas","Eastern Caribbean","St. Lucia",31423,"IV",13.967,-61.033001,1986,"Marine Reserve","MR","Marigot Bay Mangroves",0,1,0,0,0,1,"LCA"
"206",1550,"Americas","Eastern Caribbean","St. Lucia",14205,"VI",14.017,-60.917,0,"Forest Reserve","FoR","Marquis Estate Parcel M-1",0,1,0,134,0,1,"LCA"
"207",1551,"Americas","Eastern Caribbean","St. Lucia",31424,"IV",14.017,-60.900002,1986,"Marine Reserve","MR","Marquis Mangroves",0,1,0,0,0,1,"LCA"
"208",1522,"Americas","Eastern Caribbean","St. Lucia",32729,"IV",13.71145,-60.935,1990,"Marine Reserve","MR","Moule-a-Chique artificial reef",1,0,1,0,0,0,"LCA"
"209",1559,"Americas","Eastern Caribbean","St. Lucia",11846,"III",14.1,-60.917,1978,"Other area","ETC","Pigeon Island",1,1,1,20,1,0,"LCA"
"210",1539,"Americas","Eastern Caribbean","St. Lucia",31425,"IV",13.867,-61.067001,1986,"Marine Reserve","MR","Praslin Mangroves",0,1,0,0,0,1,"LCA"
"211",1532,"Americas","Eastern Caribbean","St. Lucia",31428,"IV",13.817,-61.067001,1986,"Marine Reserve","MR","Reef at Anse de Pitons",1,0,1,0,0,0,"LCA"
"212",1534,"Americas","Eastern Caribbean","St. Lucia",31426,"IV",13.833,-61.067001,1986,"Marine Reserve","MR","Reef at MalgrTtoute",1,0,1,0,0,0,"LCA"
"213",1535,"Americas","Eastern Caribbean","St. Lucia",31427,"IV",13.85,-61.067001,1986,"Marine Reserve","MR","Reef Between Grand Caille and Rachette P",1,0,1,0,0,0,"LCA"
"214",1557,"Americas","Eastern Caribbean","St. Lucia",31429,"IV",14.083,-60.966999,1986,"Marine Reserve","MR","Rodney Bay Artificial Reefs",1,0,1,0,0,0,"LCA"
"215",1529,"Americas","Eastern Caribbean","St. Lucia",12706,"IV",13.767,-60.917,1986,"Marine Reserve","MR","Savannes Bay Mangrove Area",0,1,0,500,0,1,"LCA"
"216",1536,"Americas","Eastern Caribbean","St. Lucia",71020,"VI",13.85,-61.133333,1994,"Marine Management Area","","Soufriere",1,1,1,0,1,0,"LCA"
"217",1549,"Americas","Eastern Caribbean","St. Lucia",32728,"IV",14.017,-60.983002,1990,"Marine Reserve","MR","Vigie Beach Artificial Reef",1,1,1,0,0,0,"LCA"
"218",1440,"Americas","Eastern Caribbean","St. Vincent and the Grenadines",26468,"IV",12.917,-61.150002,1987,"Wildlife Reserve","WR","All Awash Island",0,1,0,0,0,0,"VCT"
"219",1447,"Americas","Eastern Caribbean","St. Vincent and the Grenadines",26469,"IV",12.967,-61.117001,1987,"Wildlife Reserve","WR","Battowia Island",0,1,0,0,0,0,"VCT"
"220",1449,"Americas","Eastern Caribbean","St. Vincent and the Grenadines",31464,"IV",12.98,-61.279999,1987,"Wildlife Reserve","WR","Big Cay",0,1,0,0,0,0,"VCT"
"221",1418,"Americas","Eastern Caribbean","St. Vincent and the Grenadines",26470,"IV",12.65,-61.400002,1987,"Wildlife Reserve","WR","Catholic Rocks",0,1,0,0,0,0,"VCT"
"222",1482,"Americas","Eastern Caribbean","St. Vincent and the Grenadines",26472,"IV",13.3,-61.25,1987,"Wildlife Reserve","WR","Chateaubelair Islet",0,1,0,0,0,0,"VCT"
"223",1412,"Americas","Eastern Caribbean","St. Vincent and the Grenadines",26473,"IV",12.567,-61.417,1987,"Wildlife Reserve","WR","Frigate Rock",1,1,1,0,0,0,"VCT"
"224",1445,"Americas","Eastern Caribbean","St. Vincent and the Grenadines",26475,"IV",12.95,-61.25,1987,"Wildlife Reserve","WR","Isle de Quatre",1,1,1,0,0,0,"VCT"
"225",1472,"Americas","Eastern Caribbean","St. Vincent and the Grenadines",26476,"IV",13.2,-61.266998,1987,"Wildlife Reserve","WR","La Paz Island",0,1,0,0,0,0,"VCT"
"226",1462,"Americas","Eastern Caribbean","St. Vincent and the Grenadines",14881,"IV",13.12,-61.169998,1987,"Wildlife Reserve","WR","Milligan Cay",0,1,0,0,0,1,"VCT"
"227",1456,"Americas","Eastern Caribbean","St. Vincent and the Grenadines",31466,"IV",13.017,-61.216999,1987,"Wildlife Reserve","WR","Northern end of Bequia",0,1,0,0,0,0,"VCT"
"228",1424,"Americas","Eastern Caribbean","St. Vincent and the Grenadines",26477,"IV",12.767,-61.266998,1987,"Wildlife Reserve","WR","Petit Canouan",0,1,0,0,0,0,"VCT"
"229",1408,"Americas","Eastern Caribbean","St. Vincent and the Grenadines",26479,"IV",12.517,-61.367001,1987,"Wildlife Reserve","WR","Petit St. Vincent",0,1,0,0,0,0,"VCT"
"230",1446,"Americas","Eastern Caribbean","St. Vincent and the Grenadines",26478,"IV",12.95,-61.266998,1987,"Wildlife Reserve","WR","Pigeon (Ramier) Island",0,1,0,0,0,0,"VCT"
"231",1414,"Americas","Eastern Caribbean","St. Vincent and the Grenadines",26480,"IV",12.58389,-61.400002,1987,"Wildlife Reserve","WR","Prune (Palm) Island",1,1,1,0,0,0,"VCT"
"232",1416,"Americas","Eastern Caribbean","St. Vincent and the Grenadines",26481,"IV",12.617,-61.25,1987,"Wildlife Reserve","WR","Sail Rock",0,1,0,0,0,0,"VCT"
"233",1425,"Americas","Eastern Caribbean","St. Vincent and the Grenadines",26482,"IV",12.8,-61.216999,1987,"Wildlife Reserve","WR","Savan Islands",0,1,0,0,0,0,"VCT"
"234",1415,"Americas","Eastern Caribbean","St. Vincent and the Grenadines",31478,"IV",12.617,-61.349998,1987,"Marine Reserve","MR","Tobago Cays",1,1,1,3885,0,0,"VCT"
"235",1448,"Americas","Eastern Caribbean","St. Vincent and the Grenadines",31465,"IV",12.98,-61.279999,1987,"Wildlife Reserve","WR","West Cay",1,1,1,0,0,0,"VCT"
"236",1463,"Americas","Eastern Caribbean","St. Vincent and the Grenadines",14878,"IV",13.13,-61.200001,1987,"Wildlife Reserve","WR","Young Island",0,1,0,0,0,0,"VCT"
"237",1348,"Americas","Eastern Caribbean","Trinidad and Tobago",12709,"Ia",11.16439,-60.83128,1973,"Nature Reserve","NR","Buccoo Reef",1,1,1,650,1,1,"TTO"
"238",1349,"Americas","Eastern Caribbean","Trinidad and Tobago",12709,"Ia",11.16439,-60.83128,1973,"Nature Reserve","NR","Buccoo Reef",1,1,1,650,1,1,"TTO"
"239",1308,"Americas","Eastern Caribbean","Trinidad and Tobago",288,"IV",10.383333,-61.05,1968,"Game Sanctuary","GS","Bush Bush",0,1,0,1554,0,1,"TTO"
"240",1317,"Americas","Eastern Caribbean","Trinidad and Tobago",32661,"Ia",10.566667,-61.45,1987,"Prohibited Area","ProhA","Caroni Swamp",0,1,0,200,0,1,"TTO"
"241",880,"Americas","Eastern Caribbean","Trinidad and Tobago",146663,"Unknown",10.05,-62,0,"Forest Reserve","FoR","Caroni Swamp Reserve",0,1,0,0,0,1,"TTO"
"242",1321,"Americas","Eastern Caribbean","Trinidad and Tobago",12830,"Unknown",10.666667,-61.616667,0,"Other area","ETC","Chaguaramßs",0,1,0,5000,0,1,"TTO"
"243",1320,"Americas","Eastern Caribbean","Trinidad and Tobago",2205,"Unknown",10.65,-61.616667,1940,"Wildlife Sanctuary","WS","Kronstadt Island",0,1,0,5,0,0,"TTO"
"244",1355,"Americas","Eastern Caribbean","Trinidad and Tobago",32663,"IV",11.283333,-60.583333,1928,"Game Sanctuary","GS","Little Tobago",1,1,1,101,0,0,"TTO"
"245",1356,"Americas","Eastern Caribbean","Trinidad and Tobago",32663,"IV",11.283333,-60.583333,1928,"Game Sanctuary","GS","Little Tobago",1,1,1,101,0,0,"TTO"
"246",1291,"Americas","Eastern Caribbean","Trinidad and Tobago",290,"Ia",10.15,-61.583333,1958,"Wildlife Sanctuary","WS","Morne l'Enfer",0,1,0,2065,0,0,"TTO"
"247",1311,"Americas","Eastern Caribbean","Trinidad and Tobago",32664,"Unknown",10.416667,-61.066667,1993,"Prohibited Area","ProhA","Nariva Swamp",0,1,0,1500,0,1,"TTO"
"248",1326,"Americas","Eastern Caribbean","Trinidad and Tobago",2206,"IV",10.77,-61.52,1935,"Game Sanctuary","GS","Saut d'Eau",0,1,0,10,0,0,"TTO"
"249",1287,"Americas","Eastern Caribbean","Trinidad and Tobago",2207,"IV",10.05,-62,1934,"Game Sanctuary","GS","Soldado Rock",0,1,0,6,0,0,"TTO"
"250",1289,"Americas","Eastern Caribbean","Trinidad and Tobago",287,"IV",10.08,-61.49,1934,"Game Sanctuary","GS","Southern Watershed",0,1,0,1874,0,1,"TTO"
"251",1358,"Americas","Eastern Caribbean","Trinidad and Tobago",292,"IV",11.352,-60.527,1968,"Game Sanctuary","GS","St. Giles Island",0,1,0,29,0,0,"TTO"
"252",1772,"Americas","Eastern Caribbean","Virgin Islands (British)",14209,"IV",18.5,-64.467003,1959,"Bird Sanctuary","BS","Cockroach Island",0,1,0,1,0,0,"VBG"
"253",1744,"Americas","Eastern Caribbean","Virgin Islands (British)",14210,"IV",18.382999,-64.516998,1959,"Bird Sanctuary","BS","Cooper Island",1,1,1,138,0,0,"VBG"
"254",1738,"Americas","Eastern Caribbean","Virgin Islands (British)",14551,"IV",18.367001,-64.567001,1959,"Bird Sanctuary","BS","Dead Chest Island",1,1,1,14,0,0,"VBG"
"255",1757,"Americas","Eastern Caribbean","Virgin Islands (British)",81,"IV",18.436001,-64.443001,1964,"Other area","ETC","Devil's Bay",0,1,0,23,0,0,"VBG"
"256",1758,"Americas","Eastern Caribbean","Virgin Islands (British)",81,"IV",18.436001,-64.443001,1964,"Other area","ETC","Devil's Bay",0,1,0,23,0,0,"VBG"
"257",1760,"Americas","Eastern Caribbean","Virgin Islands (British)",32645,"Unknown",18.45,-64.7167,1991,"Park","P","Diamond Cay, Jost van Dyke",0,1,0,1,0,0,"VBG"
"258",1749,"Americas","Eastern Caribbean","Virgin Islands (British)",14212,"IV",18.419001,-64.452003,1959,"Bird Sanctuary","BS","Fallen Jerusalem Island",1,1,1,12,0,0,"VBG"
"259",1783,"Americas","Eastern Caribbean","Virgin Islands (British)",79,"IV",18.733333,-64.366667,1977,"Bird Sanctuary","BS","Flamingo Pond, Anegada",0,1,0,449,0,1,"VBG"
"260",1759,"Americas","Eastern Caribbean","Virgin Islands (British)",32646,"IV",18.444,-64.441002,1978,"Park","P","Fort Point",1,1,1,15,0,0,"VBG"
"261",1767,"Americas","Eastern Caribbean","Virgin Islands (British)",14213,"IV",18.483,-64.449997,1959,"Bird Sanctuary","BS","George Dog Island",0,1,0,15,0,0,"VBG"
"262",1746,"Americas","Eastern Caribbean","Virgin Islands (British)",14214,"IV",18.382999,-64.483002,1959,"Bird Sanctuary","BS","Ginger Island",0,1,0,105,0,0,"VBG"
"263",1768,"Americas","Eastern Caribbean","Virgin Islands (British)",14215,"IV",18.483,-64.449997,1959,"Bird Sanctuary","BS","Great Dog Island",0,1,0,33,0,0,"VBG"
"264",1762,"Americas","Eastern Caribbean","Virgin Islands (British)",14216,"IV",18.450001,-64.817001,1959,"Bird Sanctuary","BS","Great Tobago Island",0,1,0,89,0,0,"VBG"
"265",1781,"Americas","Eastern Caribbean","Virgin Islands (British)",31308,"Unknown",18.65,-64.25,1990,"Protected Area","PA","Horseshoe Reef",1,0,1,3000,0,0,"VBG"
"266",1755,"Americas","Eastern Caribbean","Virgin Islands (British)",14218,"IV",18.433001,-64.849998,1959,"Bird Sanctuary","BS","Little Tobago Island",0,1,0,22,0,0,"VBG"
"267",1774,"Americas","Eastern Caribbean","Virgin Islands (British)",14219,"IV",18.517,-64.400002,1959,"Bird Sanctuary","BS","Mosquito Island",1,1,1,50,0,0,"VBG"
"268",1777,"Americas","Eastern Caribbean","Virgin Islands (British)",14220,"IV",18.533001,-64.366997,1959,"Bird Sanctuary","BS","Necker Island",1,1,1,30,0,0,"VBG"
"269",1736,"Americas","Eastern Caribbean","Virgin Islands (British)",14221,"IV",18.35,-64.583,1959,"Bird Sanctuary","BS","Peter Island",1,1,1,430,0,0,"VBG"
"270",1773,"Americas","Eastern Caribbean","Virgin Islands (British)",32647,"Unknown",18.5167,-64.3667,1988,"Park","P","Prickly Pear",1,1,1,95,0,0,"VBG"
"271",1775,"Americas","Eastern Caribbean","Virgin Islands (British)",14222,"IV",18.517,-64.366997,1959,"Bird Sanctuary","BS","Prickly Pear Island",1,1,1,70,0,0,"VBG"
"272",1748,"Americas","Eastern Caribbean","Virgin Islands (British)",14223,"IV",18.4,-64.449997,1959,"Bird Sanctuary","BS","Round Rock Island",1,1,1,8,0,0,"VBG"
"273",1739,"Americas","Eastern Caribbean","Virgin Islands (British)",14225,"IV",18.367001,-64.532997,1959,"Bird Sanctuary","BS","Salt Island",1,1,1,78,0,0,"VBG"
"274",1776,"Americas","Eastern Caribbean","Virgin Islands (British)",14226,"IV",18.517,-64.349998,1959,"Bird Sanctuary","BS","St. Eustatia",1,1,1,11,0,0,"VBG"
"275",1754,"Americas","Eastern Caribbean","Virgin Islands (British)",13974,"III",18.433001,-64.449997,1990,"Natural Monument","NM","The Baths",1,1,1,3,0,0,"VBG"
"276",1771,"Americas","Eastern Caribbean","Virgin Islands (British)",14227,"IV",18.5,-64.432999,1959,"Bird Sanctuary","BS","The Seal Dogs",1,1,1,3,0,0,"VBG"
"277",1769,"Americas","Eastern Caribbean","Virgin Islands (British)",80,"IV",18.485001,-64.473,1974,"Other area","ETC","West Dog Island",0,1,0,10,0,0,"VBG"
"278",1741,"Americas","Eastern Caribbean","Virgin Islands (British)",78,"III",18.368999,-64.551003,1980,"Marine Park","MP","Wreck of the Rhone",1,1,1,324,1,0,"VBG"
"279",1742,"Americas","Eastern Caribbean","Virgin Islands (British)",78,"III",18.368999,-64.551003,1980,"Marine Park","MP","Wreck of the Rhone",1,1,1,324,1,0,"VBG"
"280",1713,"Americas","Mesoamerica","Belize",99651,"IV",18.137231,-87.873974,1996,"Marine Reserve","MR","Bacalar Chico",1,1,1,10700,0,1,"BLZ"
"281",1674,"Americas","Mesoamerica","Belize",12230,"IV",17.33,-88.32,1977,"Bird Sanctuary","BS","Bird Cay",0,1,0,1,0,1,"BLZ"
"282",1676,"Americas","Mesoamerica","Belize",20225,"III",17.408001,-87.502998,1986,"Natural Monument","NM","Blue Hole",1,0,1,4100,0,0,"BLZ"
"283",1677,"Americas","Mesoamerica","Belize",20225,"III",17.408001,-87.502998,1986,"Natural Monument","NM","Blue Hole",1,0,1,4100,0,0,"BLZ"
"284",1707,"Americas","Mesoamerica","Belize",12231,"IV",18.030001,-88.620003,1977,"Bird Sanctuary","BS","Doubloon Bank Cay",0,1,0,1,0,1,"BLZ"
"285",1641,"Americas","Mesoamerica","Belize",220039,"IV",16.55,-88.05,2000,"Marine Reserve","MR","Gladden Spit",1,0,1,0,0,0,"BLZ"
"286",1649,"Americas","Mesoamerica","Belize",99653,"IV",16.755215,-87.840806,1993,"Marine Reserve","MR","Glovers Reef",1,1,1,30800,0,0,"BLZ"
"287",1650,"Americas","Mesoamerica","Belize",99653,"IV",16.755215,-87.840806,1993,"Marine Reserve","MR","Glovers Reef",1,1,1,30800,0,0,"BLZ"
"288",1670,"Americas","Mesoamerica","Belize",2213,"III",17.216999,-87.521004,1982,"National Monument","NaM","Half Moon Caye",1,1,1,3925,1,1,"BLZ"
"289",1692,"Americas","Mesoamerica","Belize",12243,"IV",17.867001,-87.992996,1987,"Marine Reserve","MR","Hol Chan",1,1,1,411,1,1,"BLZ"
"290",1640,"Americas","Mesoamerica","Belize",34314,"II",16.437,-88.195999,1991,"National Park","NP","Laughing Bird Caye",0,1,0,4300,0,0,"BLZ"
"291",1708,"Americas","Mesoamerica","Belize",12232,"IV",18.030001,-87.970001,1977,"Bird Sanctuary","BS","Little Guana Cay",0,1,0,2,0,1,"BLZ"
"292",1667,"Americas","Mesoamerica","Belize",12226,"VI",17.174999,-88.462997,1959,"Forest Reserve","FoR","Manatee",0,1,0,3300,0,1,"BLZ"
"293",1651,"Americas","Mesoamerica","Belize",12233,"IV",16.870001,-88.099998,1977,"Bird Sanctuary","BS","Man-o-war Cay",1,1,1,1,0,1,"BLZ"
"294",1629,"Americas","Mesoamerica","Belize",220100,"IV",16.25604,-88.7,2000,"Marine Reserve","MR","Port Honduras",1,1,1,84700,1,0,"BLZ"
"295",1624,"Americas","Mesoamerica","Belize",99656,"IV",16.145227,-88.293425,1996,"Marine Reserve","MR","Sapodilla Cayes",1,1,1,12700,0,0,"BLZ"
"296",1724,"Americas","Mesoamerica","Belize",20226,"IV",18.268,-88.181999,1987,"Private Reserve","PrivR","Shipstern",0,1,0,9022,0,1,"BLZ"
"297",1698,"Americas","Mesoamerica","Belize",12234,"IV",17.950001,-88.099998,1977,"Bird Sanctuary","BS","Small Mangrove Cay",0,1,0,1,0,1,"BLZ"
"298",1647,"Americas","Mesoamerica","Belize",99652,"IV",16.732316,-88.151008,1996,"Marine Reserve","MR","South Water Caye",1,1,1,29800,1,1,"BLZ"
"299",1644,"Americas","Mesoamerica","Belize",29684,"IV",16.700001,-87.68,0,"Bird Sanctuary","BS","Southwest Cay",0,1,0,0,0,1,"BLZ"
"300",1699,"Americas","Mesoamerica","Belize",29681,"IV",17.950001,-88.099998,1977,"Bird Sanctuary","BS","Unnamed Cay (I)",0,1,0,1,0,1,"BLZ"
"301",1638,"Americas","Mesoamerica","Belize",29682,"IV",16.4,-88.449997,1977,"Bird Sanctuary","BS","Unnamed Cay (II)",0,1,0,1,0,1,"BLZ"
"302",1675,"Americas","Mesoamerica","Belize",29683,"IV",17.33,-88.330002,1977,"Bird Sanctuary","BS","Unnamed Cay (III)",0,1,0,1,0,1,"BLZ"
"303",1523,"Americas","Mesoamerica","El Salvador",21408,"Unknown",13.716667,-90.033333,0,"Area de Uso Múltiple","ArUm","Barra de Santiago",0,1,0,2725,0,1,"SLV"
"304",1524,"Americas","Mesoamerica","El Salvador",21408,"Unknown",13.716667,-90.033333,0,"Area de Uso Múltiple","ArUm","Barra de Santiago",0,1,0,2725,0,1,"SLV"
"305",1533,"Americas","Mesoamerica","El Salvador",12494,"II",13.83,-89.959,1989,"National Park","NP","El Imposible",0,1,0,3222,0,1,"SLV"
"306",1560,"Americas","Mesoamerica","El Salvador",9638,"IV",14.382,-89.369003,1987,"National Park","NP","Montecristo",0,1,0,2000,0,1,"SLV"
"307",1492,"Americas","Mesoamerica","El Salvador",12525,"Unknown",13.366667,-88.5,0,"Area de Protección y Recuperación Natural","APrN","Santa Clara",0,1,0,602,0,0,"SLV"
"308",1599,"Americas","Mesoamerica","Guatemala",12430,"Unknown",15.65,-88.65,1956,"Other area","ETC","Bahfa Santo Tomßs",0,1,0,1000,0,0,"GTM"
"309",1605,"Americas","Mesoamerica","Guatemala",12594,"II",15.733333,-88.883333,1981,"Protected Biotope","PB","Chocón-Machacas",0,1,0,6265,0,1,"GTM"
"310",1541,"Americas","Mesoamerica","Guatemala",12422,"III",13.883333,-90.416667,1977,"Multiple Use Reserve","MUR","Monterrico",0,1,0,2800,0,1,"GTM"
"311",1606,"Americas","Mesoamerica","Guatemala",12564,"Unknown",15.766667,-88.433333,0,"Wildlife Refuge","WRef","Punta de Manabique/Bahía La Graciosa",1,1,0,38400,1,1,"GTM"
"312",1603,"Americas","Mesoamerica","Guatemala",2239,"VI",15.716667,-88.833333,1955,"National Park","NP","Rfo Dulce",0,1,0,7200,0,1,"GTM"
"313",1490,"Americas","Mesoamerica","Honduras",41021,"IV",13.35,-87.483002,1992,"Wildlife Refuge","WRef","Bahfa de Chismuyo",1,1,1,29000,0,1,"HND"
"314",1613,"Americas","Mesoamerica","Honduras",41010,"V",15.93397,-86.516667,1993,"Biological Reserve","BiR","Cayos Cochinos",1,1,1,46000,0,1,"HND"
"315",1604,"Americas","Mesoamerica","Honduras",18816,"IV",15.716667,-86.933333,1987,"Wildlife Refuge","WRef","Cuero y Salado",0,1,0,13225,0,1,"HND"
"316",1479,"Americas","Mesoamerica","Honduras",41019,"IV",13.283333,-86.966667,1992,"Wildlife Refuge","WRef","El Jicarito",1,1,1,1541,0,1,"HND"
"317",1473,"Americas","Mesoamerica","Honduras",41016,"IV",13.25,-87.066667,1992,"Wildlife Refuge","WRef","El Quebrachal",1,1,1,198,0,1,"HND"
"318",1465,"Americas","Mesoamerica","Honduras",41017,"IV",13.166667,-87.25,1992,"Wildlife Refuge","WRef","Guamer·",1,1,1,0,0,1,"HND"
"319",1467,"Americas","Mesoamerica","Honduras",41023,"IV",13.1833,-87.25,1992,"Wildlife Refuge","WRef","Guapinol",1,1,1,0,0,1,"HND"
"320",1678,"Americas","Mesoamerica","Honduras",41004,"II",17.42303,-84,1991,"Marine National Park","MNP","Islas del Cisne",1,1,1,0,0,0,"HND"
"321",1608,"Americas","Mesoamerica","Honduras",30627,"II",15.816667,-87.35,1988,"National Park","NP","Jeanette Kawas",1,1,1,78162,1,1,"HND"
"322",1470,"Americas","Mesoamerica","Honduras",41020,"IV",13.2,-87.0667,1992,"Wildlife Refuge","WRef","La Alemania",1,1,1,0,0,1,"HND"
"323",1596,"Americas","Mesoamerica","Honduras",30625,"Unknown",15.5,-84.05,0,"Wildlife Refuge","WRef","Laguna de Caratasca",0,1,0,120000,0,0,"HND"
"324",1614,"Americas","Mesoamerica","Honduras",36051,"IV",15.95,-85.833333,1992,"Wildlife Refuge","WRef","Laguna de Guaymoreto",1,1,0,5000,0,1,"HND"
"325",1474,"Americas","Mesoamerica","Honduras",41022,"IV",13.266667,-87.233333,1992,"Wildlife Refuge","WRef","Las Iguanas",1,1,1,1426,0,1,"HND"
"326",1507,"Americas","Mesoamerica","Honduras",2210,"Unknown",13.5,-87.5,1961,"Bosque Nacional","BN","Manglares del Golfo de Fonseca",0,1,0,71000,0,1,"HND"
"327",1468,"Americas","Mesoamerica","Honduras",41015,"IV",13.183333,-87.133333,1992,"Wildlife Refuge","WRef","Montecristo",1,1,1,0,0,1,"HND"
"328",1461,"Americas","Mesoamerica","Honduras",30626,"IV",13.1167,-87.4167,1992,"Wildlife Refuge","WRef","Punta Condega",0,1,0,3900,0,1,"HND"
"329",1607,"Americas","Mesoamerica","Honduras",41024,"IV",15.81443,-87.383333,1992,"Wildlife Refuge","WRef","Punta Izopo",1,1,1,11200,1,1,"HND"
"330",1480,"Americas","Mesoamerica","Honduras",36052,"Unknown",13.28946,-87.46118,0,"Wildlife Refuge","WRef","Punta Ratón",1,0,1,500,0,0,"HND"
"331",1622,"Americas","Mesoamerica","Honduras",41008,"IV",16.1,-86.949997,0,"Wildlife Refuge","WRef","Ragged Cay",1,1,1,0,0,0,"HND"
"332",1464,"Americas","Mesoamerica","Honduras",40996,"Unknown",13.15,-87.233333,0,"Biological Reserve","BiR","Río Negro",0,1,0,60000,0,0,"HND"
"333",1483,"Americas","Mesoamerica","Honduras",41018,"IV",13.31381,-87.678,1992,"Wildlife Refuge","WRef","Teonostal",1,1,1,0,0,1,"HND"
"334",1784,"Americas","Mesoamerica","Mexico",101412,"VI",18.760378,-110.985315,1994,"Biosphere Reserve (National)","BR(N)","Archipiélago de Revillagigedo",1,1,1,636685,0,0,"MEX"
"335",1785,"Americas","Mesoamerica","Mexico",101412,"VI",18.760378,-110.985315,1994,"Biosphere Reserve (National)","BR(N)","Archipiélago de Revillagigedo",1,1,1,636685,0,0,"MEX"
"336",1786,"Americas","Mesoamerica","Mexico",101412,"VI",18.760378,-110.985315,1994,"Biosphere Reserve (National)","BR(N)","Archipiélago de Revillagigedo",1,1,1,636685,0,0,"MEX"
"337",1787,"Americas","Mesoamerica","Mexico",101412,"VI",18.760378,-110.985315,1994,"Biosphere Reserve (National)","BR(N)","Archipiélago de Revillagigedo",1,1,1,636685,0,0,"MEX"
"338",2080,"Americas","Mesoamerica","Mexico",103185,"II",22.510239,-89.698062,1994,"National Marine Park","NMP","Arrecife Alacranes",1,0,1,333769,0,0,"MEX"
"339",1891,"Americas","Mesoamerica","Mexico",166965,"II",20.318942,-87.039562,1996,"National Park","NP","Arrecifes de Cozumel",1,1,1,11988,0,0,"MEX"
"340",1918,"Americas","Mesoamerica","Mexico",166966,"II",20.938827,-86.819516,1998,"National Park","NP","Arrecifes de Puerto Morelos",1,1,1,10828,1,0,"MEX"
"341",1846,"Americas","Mesoamerica","Mexico",166954,"VI",19.646254,-87.512974,1998,"Biosphere Reserve (National)","BR(N)","Arrecifes de Sian Ka'an",1,0,1,34927,0,0,"MEX"
"342",2250,"Americas","Mesoamerica","Mexico",166967,"II",25.75,-111.333333,1996,"National Marine Park","NMP","Bahfa de Loreto",1,1,1,206581,0,0,"MEX"
"343",1780,"Americas","Mesoamerica","Mexico",103171,"VI",18.590954,-87.350365,1996,"Biosphere Reserve (National)","BR(N)","Banco Chinchorro",1,1,1,144360,1,1,"MEX"
"344",2110,"Americas","Mesoamerica","Mexico",101426,"II",23.166667,-109.833333,1995,"National Marine Park","NMP","Cabo Pulmo",1,1,1,7111,0,0,"MEX"
"345",2348,"Americas","Mesoamerica","Mexico",68883,"IV",28.133889,-111.043611,1937,"Hunting Reserve","HR","Caj=n del Diablo",1,1,0,59000,0,0,"MEX"
"346",2353,"Americas","Mesoamerica","Mexico",14309,"Unknown",28.3,-111.35,1937,"Other area","ETC","Cajón del Diablo",0,1,0,147000,0,0,"MEX"
"347",1842,"Americas","Mesoamerica","Mexico",3073,"Unknown",19.6,-105.066667,1971,"Bird Sanctuary","BS","Chamela",0,1,0,1584,0,0,"MEX"
"348",1892,"Americas","Mesoamerica","Mexico",168247,"IV",20.383333,-87.066667,1980,"Area de Protecci=n de Flora y Fauna","APFFS","Costa Occidental de Isla Cozumel",1,0,1,0,0,0,"MEX"
"349",1939,"Americas","Mesoamerica","Mexico",18088,"IV",21.227498,-86.743706,1973,"Area de Protección de Flora y Fauna","APFFS","Costa Occidentel de Isla Mujeres",1,1,1,664,0,1,"MEX"
"350",1952,"Americas","Mesoamerica","Mexico",14313,"Unknown",21.416667,-88.666667,1989,"State Reserve","SR","Dzilam",0,1,0,61707,0,1,"MEX"
"351",2524,"Americas","Mesoamerica","Mexico",32971,"VI",31.85,-113.533333,1993,"Biosphere Reserve (National)","BR(N)","El Pinacate y Gran Desierto de Altar",0,1,0,714556,0,0,"MEX"
"352",1652,"Americas","Mesoamerica","Mexico",5404,"II",16.883333,-99.9,1980,"National Park","NP","El Veladero",0,1,0,3159,0,0,"MEX"
"353",2294,"Americas","Mesoamerica","Mexico",19569,"VI",27.458889,-113.591944,1988,"Biosphere Reserve (National)","BR(N)","El Vizcaíno",1,1,0,2546790,1,1,"MEX"
"354",2295,"Americas","Mesoamerica","Mexico",19569,"VI",27.458889,-113.591944,1988,"Biosphere Reserve (National)","BR(N)","El Vizcaíno",1,1,0,2546790,1,1,"MEX"
"355",2296,"Americas","Mesoamerica","Mexico",19569,"VI",27.458889,-113.591944,1988,"Biosphere Reserve (National)","BR(N)","El Vizcaíno",1,1,0,2546790,1,1,"MEX"
"356",2297,"Americas","Mesoamerica","Mexico",19569,"VI",27.458889,-113.591944,1988,"Biosphere Reserve (National)","BR(N)","El Vizcaíno",1,1,0,2546790,1,1,"MEX"
"357",2146,"Americas","Mesoamerica","Mexico",168249,"Unknown",24.466667,-110.5,1973,"Area de Protecci=n de Flora y Fauna","APFFS","Fondo Cabo San Lucas",1,1,1,0,0,0,"MEX"
"358",1962,"Americas","Mesoamerica","Mexico",12884,"II",21.5,-86.8,1998,"National Park","NP","Isla Contoy",1,1,1,5126,0,1,"MEX"
"359",2447,"Americas","Mesoamerica","Mexico",209,"Unknown",29.033333,-118.3,1922,"Other area","ETC","Isla de Guadalupe",0,1,0,25000,0,0,"MEX"
"360",2448,"Americas","Mesoamerica","Mexico",209,"Unknown",29.033333,-118.3,1922,"Other area","ETC","Isla de Guadalupe",0,1,0,25000,0,0,"MEX"
"361",2449,"Americas","Mesoamerica","Mexico",209,"Unknown",29.033333,-118.3,1922,"Other area","ETC","Isla de Guadalupe",0,1,0,25000,0,0,"MEX"
"362",1994,"Americas","Mesoamerica","Mexico",2583,"II",21.883333,-105.9,1980,"National Park","NP","Isla Isabel",0,1,0,194,0,0,"MEX"
"363",1995,"Americas","Mesoamerica","Mexico",2583,"II",21.883333,-105.9,1980,"National Park","NP","Isla Isabel",0,1,0,194,0,0,"MEX"
"364",1996,"Americas","Mesoamerica","Mexico",2583,"II",21.883333,-105.9,1980,"National Park","NP","Isla Isabel",0,1,0,194,0,0,"MEX"
"365",1997,"Americas","Mesoamerica","Mexico",2583,"II",21.883333,-105.9,1980,"National Park","NP","Isla Isabel",0,1,0,194,0,0,"MEX"
"366",1998,"Americas","Mesoamerica","Mexico",2583,"II",21.883333,-105.9,1980,"National Park","NP","Isla Isabel",0,1,0,194,0,0,"MEX"
"367",1931,"Americas","Mesoamerica","Mexico",168243,"V",21.149118,-86.723568,1996,"National Park","NP","Isla Mujeres, Punta Cancún y Punta Nizuc",1,1,1,8673,0,1,"MEX"
"368",2438,"Americas","Mesoamerica","Mexico",14296,"Unknown",28.805,-112.980833,1964,"Other area","ETC","Isla Rasa",0,1,0,61,0,0,"MEX"
"369",2445,"Americas","Mesoamerica","Mexico",14307,"Unknown",29.016667,-112.333333,1963,"Other area","ETC","Isla Tiburón",0,1,0,120800,0,0,"MEX"
"370",2361,"Americas","Mesoamerica","Mexico",5408,"Unknown",28.7,-112.566667,1978,"Other area","ETC","Islas del Golfo de California",0,1,0,150000,0,0,"MEX"
"371",2362,"Americas","Mesoamerica","Mexico",5408,"Unknown",28.7,-112.566667,1978,"Other area","ETC","Islas del Golfo de California",0,1,0,150000,0,0,"MEX"
"372",2363,"Americas","Mesoamerica","Mexico",5408,"Unknown",28.7,-112.566667,1978,"Other area","ETC","Islas del Golfo de California",0,1,0,150000,0,0,"MEX"
"373",2364,"Americas","Mesoamerica","Mexico",5408,"Unknown",28.7,-112.566667,1978,"Other area","ETC","Islas del Golfo de California",0,1,0,150000,0,0,"MEX"
"374",2365,"Americas","Mesoamerica","Mexico",5408,"Unknown",28.7,-112.566667,1978,"Other area","ETC","Islas del Golfo de California",0,1,0,150000,0,0,"MEX"
"375",2366,"Americas","Mesoamerica","Mexico",5408,"Unknown",28.7,-112.566667,1978,"Other area","ETC","Islas del Golfo de California",0,1,0,150000,0,0,"MEX"
"376",2367,"Americas","Mesoamerica","Mexico",5408,"Unknown",28.7,-112.566667,1978,"Other area","ETC","Islas del Golfo de California",0,1,0,150000,0,0,"MEX"
"377",2368,"Americas","Mesoamerica","Mexico",5408,"Unknown",28.7,-112.566667,1978,"Other area","ETC","Islas del Golfo de California",0,1,0,150000,0,0,"MEX"
"378",2369,"Americas","Mesoamerica","Mexico",5408,"Unknown",28.7,-112.566667,1978,"Other area","ETC","Islas del Golfo de California",0,1,0,150000,0,0,"MEX"
"379",2370,"Americas","Mesoamerica","Mexico",5408,"Unknown",28.7,-112.566667,1978,"Other area","ETC","Islas del Golfo de California",0,1,0,150000,0,0,"MEX"
"380",2371,"Americas","Mesoamerica","Mexico",5408,"Unknown",28.7,-112.566667,1978,"Other area","ETC","Islas del Golfo de California",0,1,0,150000,0,0,"MEX"
"381",2372,"Americas","Mesoamerica","Mexico",5408,"Unknown",28.7,-112.566667,1978,"Other area","ETC","Islas del Golfo de California",0,1,0,150000,0,0,"MEX"
"382",2373,"Americas","Mesoamerica","Mexico",5408,"Unknown",28.7,-112.566667,1978,"Other area","ETC","Islas del Golfo de California",0,1,0,150000,0,0,"MEX"
"383",2374,"Americas","Mesoamerica","Mexico",5408,"Unknown",28.7,-112.566667,1978,"Other area","ETC","Islas del Golfo de California",0,1,0,150000,0,0,"MEX"
"384",2375,"Americas","Mesoamerica","Mexico",5408,"Unknown",28.7,-112.566667,1978,"Other area","ETC","Islas del Golfo de California",0,1,0,150000,0,0,"MEX"
"385",2376,"Americas","Mesoamerica","Mexico",5408,"Unknown",28.7,-112.566667,1978,"Other area","ETC","Islas del Golfo de California",0,1,0,150000,0,0,"MEX"
"386",2377,"Americas","Mesoamerica","Mexico",5408,"Unknown",28.7,-112.566667,1978,"Other area","ETC","Islas del Golfo de California",0,1,0,150000,0,0,"MEX"
"387",2378,"Americas","Mesoamerica","Mexico",5408,"Unknown",28.7,-112.566667,1978,"Other area","ETC","Islas del Golfo de California",0,1,0,150000,0,0,"MEX"
"388",2379,"Americas","Mesoamerica","Mexico",5408,"Unknown",28.7,-112.566667,1978,"Other area","ETC","Islas del Golfo de California",0,1,0,150000,0,0,"MEX"
"389",2380,"Americas","Mesoamerica","Mexico",5408,"Unknown",28.7,-112.566667,1978,"Other area","ETC","Islas del Golfo de California",0,1,0,150000,0,0,"MEX"
"390",2381,"Americas","Mesoamerica","Mexico",5408,"Unknown",28.7,-112.566667,1978,"Other area","ETC","Islas del Golfo de California",0,1,0,150000,0,0,"MEX"
"391",2382,"Americas","Mesoamerica","Mexico",5408,"Unknown",28.7,-112.566667,1978,"Other area","ETC","Islas del Golfo de California",0,1,0,150000,0,0,"MEX"
"392",2383,"Americas","Mesoamerica","Mexico",5408,"Unknown",28.7,-112.566667,1978,"Other area","ETC","Islas del Golfo de California",0,1,0,150000,0,0,"MEX"
"393",2384,"Americas","Mesoamerica","Mexico",5408,"Unknown",28.7,-112.566667,1978,"Other area","ETC","Islas del Golfo de California",0,1,0,150000,0,0,"MEX"
"394",2385,"Americas","Mesoamerica","Mexico",5408,"Unknown",28.7,-112.566667,1978,"Other area","ETC","Islas del Golfo de California",0,1,0,150000,0,0,"MEX"
"395",2386,"Americas","Mesoamerica","Mexico",5408,"Unknown",28.7,-112.566667,1978,"Other area","ETC","Islas del Golfo de California",0,1,0,150000,0,0,"MEX"
"396",2387,"Americas","Mesoamerica","Mexico",5408,"Unknown",28.7,-112.566667,1978,"Other area","ETC","Islas del Golfo de California",0,1,0,150000,0,0,"MEX"
"397",2388,"Americas","Mesoamerica","Mexico",5408,"Unknown",28.7,-112.566667,1978,"Other area","ETC","Islas del Golfo de California",0,1,0,150000,0,0,"MEX"
"398",2389,"Americas","Mesoamerica","Mexico",5408,"Unknown",28.7,-112.566667,1978,"Other area","ETC","Islas del Golfo de California",0,1,0,150000,0,0,"MEX"
"399",2390,"Americas","Mesoamerica","Mexico",5408,"Unknown",28.7,-112.566667,1978,"Other area","ETC","Islas del Golfo de California",0,1,0,150000,0,0,"MEX"
"400",2391,"Americas","Mesoamerica","Mexico",5408,"Unknown",28.7,-112.566667,1978,"Other area","ETC","Islas del Golfo de California",0,1,0,150000,0,0,"MEX"
"401",2392,"Americas","Mesoamerica","Mexico",5408,"Unknown",28.7,-112.566667,1978,"Other area","ETC","Islas del Golfo de California",0,1,0,150000,0,0,"MEX"
"402",2393,"Americas","Mesoamerica","Mexico",5408,"Unknown",28.7,-112.566667,1978,"Other area","ETC","Islas del Golfo de California",0,1,0,150000,0,0,"MEX"
"403",2394,"Americas","Mesoamerica","Mexico",5408,"Unknown",28.7,-112.566667,1978,"Other area","ETC","Islas del Golfo de California",0,1,0,150000,0,0,"MEX"
"404",2395,"Americas","Mesoamerica","Mexico",5408,"Unknown",28.7,-112.566667,1978,"Other area","ETC","Islas del Golfo de California",0,1,0,150000,0,0,"MEX"
"405",2396,"Americas","Mesoamerica","Mexico",5408,"Unknown",28.7,-112.566667,1978,"Other area","ETC","Islas del Golfo de California",0,1,0,150000,0,0,"MEX"
"406",2397,"Americas","Mesoamerica","Mexico",5408,"Unknown",28.7,-112.566667,1978,"Other area","ETC","Islas del Golfo de California",0,1,0,150000,0,0,"MEX"
"407",2398,"Americas","Mesoamerica","Mexico",5408,"Unknown",28.7,-112.566667,1978,"Other area","ETC","Islas del Golfo de California",0,1,0,150000,0,0,"MEX"
"408",2399,"Americas","Mesoamerica","Mexico",5408,"Unknown",28.7,-112.566667,1978,"Other area","ETC","Islas del Golfo de California",0,1,0,150000,0,0,"MEX"
"409",2400,"Americas","Mesoamerica","Mexico",5408,"Unknown",28.7,-112.566667,1978,"Other area","ETC","Islas del Golfo de California",0,1,0,150000,0,0,"MEX"
"410",2401,"Americas","Mesoamerica","Mexico",5408,"Unknown",28.7,-112.566667,1978,"Other area","ETC","Islas del Golfo de California",0,1,0,150000,0,0,"MEX"
"411",2402,"Americas","Mesoamerica","Mexico",5408,"Unknown",28.7,-112.566667,1978,"Other area","ETC","Islas del Golfo de California",0,1,0,150000,0,0,"MEX"
"412",2403,"Americas","Mesoamerica","Mexico",5408,"Unknown",28.7,-112.566667,1978,"Other area","ETC","Islas del Golfo de California",0,1,0,150000,0,0,"MEX"
"413",2404,"Americas","Mesoamerica","Mexico",5408,"Unknown",28.7,-112.566667,1978,"Other area","ETC","Islas del Golfo de California",0,1,0,150000,0,0,"MEX"
"414",2405,"Americas","Mesoamerica","Mexico",5408,"Unknown",28.7,-112.566667,1978,"Other area","ETC","Islas del Golfo de California",0,1,0,150000,0,0,"MEX"
"415",2406,"Americas","Mesoamerica","Mexico",5408,"Unknown",28.7,-112.566667,1978,"Other area","ETC","Islas del Golfo de California",0,1,0,150000,0,0,"MEX"
"416",2407,"Americas","Mesoamerica","Mexico",5408,"Unknown",28.7,-112.566667,1978,"Other area","ETC","Islas del Golfo de California",0,1,0,150000,0,0,"MEX"
"417",2408,"Americas","Mesoamerica","Mexico",5408,"Unknown",28.7,-112.566667,1978,"Other area","ETC","Islas del Golfo de California",0,1,0,150000,0,0,"MEX"
"418",2409,"Americas","Mesoamerica","Mexico",5408,"Unknown",28.7,-112.566667,1978,"Other area","ETC","Islas del Golfo de California",0,1,0,150000,0,0,"MEX"
"419",2410,"Americas","Mesoamerica","Mexico",5408,"Unknown",28.7,-112.566667,1978,"Other area","ETC","Islas del Golfo de California",0,1,0,150000,0,0,"MEX"
"420",2411,"Americas","Mesoamerica","Mexico",5408,"Unknown",28.7,-112.566667,1978,"Other area","ETC","Islas del Golfo de California",0,1,0,150000,0,0,"MEX"
"421",2412,"Americas","Mesoamerica","Mexico",5408,"Unknown",28.7,-112.566667,1978,"Other area","ETC","Islas del Golfo de California",0,1,0,150000,0,0,"MEX"
"422",2413,"Americas","Mesoamerica","Mexico",5408,"Unknown",28.7,-112.566667,1978,"Other area","ETC","Islas del Golfo de California",0,1,0,150000,0,0,"MEX"
"423",2414,"Americas","Mesoamerica","Mexico",5408,"Unknown",28.7,-112.566667,1978,"Other area","ETC","Islas del Golfo de California",0,1,0,150000,0,0,"MEX"
"424",2415,"Americas","Mesoamerica","Mexico",5408,"Unknown",28.7,-112.566667,1978,"Other area","ETC","Islas del Golfo de California",0,1,0,150000,0,0,"MEX"
"425",2416,"Americas","Mesoamerica","Mexico",5408,"Unknown",28.7,-112.566667,1978,"Other area","ETC","Islas del Golfo de California",0,1,0,150000,0,0,"MEX"
"426",2417,"Americas","Mesoamerica","Mexico",5408,"Unknown",28.7,-112.566667,1978,"Other area","ETC","Islas del Golfo de California",0,1,0,150000,0,0,"MEX"
"427",2418,"Americas","Mesoamerica","Mexico",5408,"Unknown",28.7,-112.566667,1978,"Other area","ETC","Islas del Golfo de California",0,1,0,150000,0,0,"MEX"
"428",2419,"Americas","Mesoamerica","Mexico",5408,"Unknown",28.7,-112.566667,1978,"Other area","ETC","Islas del Golfo de California",0,1,0,150000,0,0,"MEX"
"429",2420,"Americas","Mesoamerica","Mexico",5408,"Unknown",28.7,-112.566667,1978,"Other area","ETC","Islas del Golfo de California",0,1,0,150000,0,0,"MEX"
"430",2421,"Americas","Mesoamerica","Mexico",5408,"Unknown",28.7,-112.566667,1978,"Other area","ETC","Islas del Golfo de California",0,1,0,150000,0,0,"MEX"
"431",2422,"Americas","Mesoamerica","Mexico",5408,"Unknown",28.7,-112.566667,1978,"Other area","ETC","Islas del Golfo de California",0,1,0,150000,0,0,"MEX"
"432",2423,"Americas","Mesoamerica","Mexico",5408,"Unknown",28.7,-112.566667,1978,"Other area","ETC","Islas del Golfo de California",0,1,0,150000,0,0,"MEX"
"433",2424,"Americas","Mesoamerica","Mexico",5408,"Unknown",28.7,-112.566667,1978,"Other area","ETC","Islas del Golfo de California",0,1,0,150000,0,0,"MEX"
"434",2425,"Americas","Mesoamerica","Mexico",5408,"Unknown",28.7,-112.566667,1978,"Other area","ETC","Islas del Golfo de California",0,1,0,150000,0,0,"MEX"
"435",2426,"Americas","Mesoamerica","Mexico",5408,"Unknown",28.7,-112.566667,1978,"Other area","ETC","Islas del Golfo de California",0,1,0,150000,0,0,"MEX"
"436",2427,"Americas","Mesoamerica","Mexico",5408,"Unknown",28.7,-112.566667,1978,"Other area","ETC","Islas del Golfo de California",0,1,0,150000,0,0,"MEX"
"437",2428,"Americas","Mesoamerica","Mexico",5408,"Unknown",28.7,-112.566667,1978,"Other area","ETC","Islas del Golfo de California",0,1,0,150000,0,0,"MEX"
"438",2429,"Americas","Mesoamerica","Mexico",5408,"Unknown",28.7,-112.566667,1978,"Other area","ETC","Islas del Golfo de California",0,1,0,150000,0,0,"MEX"
"439",2430,"Americas","Mesoamerica","Mexico",5408,"Unknown",28.7,-112.566667,1978,"Other area","ETC","Islas del Golfo de California",0,1,0,150000,0,0,"MEX"
"440",2431,"Americas","Mesoamerica","Mexico",5408,"Unknown",28.7,-112.566667,1978,"Other area","ETC","Islas del Golfo de California",0,1,0,150000,0,0,"MEX"
"441",2432,"Americas","Mesoamerica","Mexico",5408,"Unknown",28.7,-112.566667,1978,"Other area","ETC","Islas del Golfo de California",0,1,0,150000,0,0,"MEX"
"442",1795,"Americas","Mesoamerica","Mexico",12881,"IV",19.22859,-96.121,1975,"Other area","ETC","La Blanquilla",1,0,1,66868,1,0,"MEX"
"443",1592,"Americas","Mesoamerica","Mexico",20064,"VI",15.083056,-92.916944,1995,"Biosphere Reserve (National)","BR(N)","La Encrucijada",0,1,0,144868,0,1,"MEX"
"444",1893,"Americas","Mesoamerica","Mexico",168248,"Unknown",20.433333,-87,1983,"Parque Natural","PNat","Laguna de Chankanaab",1,0,1,0,0,0,"MEX"
"445",1617,"Americas","Mesoamerica","Mexico",219,"II",15.966667,-97.633333,1937,"National Park","NP","Lagunas de Chacahua",0,1,0,14187,0,1,"MEX"
"446",1894,"Americas","Mesoamerica","Mexico",14302,"V",20.5,-105.3,1975,"Other area","ETC","Los Arcos",1,0,1,0,0,0,"MEX"
"447",1779,"Americas","Mesoamerica","Mexico",3074,"Unknown",18.566667,-95.016667,1968,"Bird Sanctuary","BS","Los Tuxtlas",0,1,0,1000,0,0,"MEX"
"448",1723,"Americas","Mesoamerica","Mexico",20134,"VI",18.266667,-92.5,1992,"Biosphere Reserve (National)","BR(N)","Pantanos de Centla",0,1,0,302706,0,1,"MEX"
"449",1964,"Americas","Mesoamerica","Mexico",20188,"IV",21.533333,-87.933333,1986,"Reserve Zone for Sea Turtle Protection","RZSTP","Playa adyacente a Rfo Lagartos",0,1,0,210,0,1,"MEX"
"450",2128,"Americas","Mesoamerica","Mexico",18089,"IV",23.85,-106.932999,1986,"Reserve Zone for Sea Turtle Protection","RZSTP","Playa Ceuta",0,1,0,175,0,0,"MEX"
"451",1815,"Americas","Mesoamerica","Mexico",18077,"IV",19.383333,-105.016667,1986,"Reserve Zone for Sea Turtle Protection","RZSTP","Playa Cuitzmala",0,1,0,30,0,0,"MEX"
"452",1602,"Americas","Mesoamerica","Mexico",18086,"IV",15.7,-96.666667,1986,"Reserve Zone for Sea Turtle Protection","RZSTP","Playa de Escobilla",0,1,0,75,0,0,"MEX"
"453",1961,"Americas","Mesoamerica","Mexico",20189,"IV",21.5,-86.8,1986,"Reserve Zone for Sea Turtle Protection","RZSTP","Playa de Isla Contoy",0,1,0,48,0,1,"MEX"
"454",1612,"Americas","Mesoamerica","Mexico",32970,"IV",15.933,-97.616997,1986,"Reserve Zone for Sea Turtle Protection","RZSTP","Playa de la Bahfa de Chacahua",0,1,0,1740,0,0,"MEX"
"455",1728,"Americas","Mesoamerica","Mexico",18084,"IV",18.283001,-103.400002,1986,"Reserve Zone for Sea Turtle Protection","RZSTP","Playa de Maruata y Cololoa",0,1,0,63,0,0,"MEX"
"456",1611,"Americas","Mesoamerica","Mexico",18068,"IV",15.917,-93.833,1986,"Reserve Zone for Sea Turtle Protection","RZSTP","Playa de Puerto Arista",0,1,0,3000,0,0,"MEX"
"457",1797,"Americas","Mesoamerica","Mexico",18078,"IV",19.283001,-104.900002,1986,"Reserve Zone for Sea Turtle Protection","RZSTP","Playa El Tecußn",0,1,0,700,0,0,"MEX"
"458",2107,"Americas","Mesoamerica","Mexico",18090,"IV",22.882999,-106.099998,1986,"Reserve Zone for Sea Turtle Protection","RZSTP","Playa El Verde Camacho",0,1,0,150,0,0,"MEX"
"459",1711,"Americas","Mesoamerica","Mexico",18085,"IV",18.1,-102.866997,1986,"Reserve Zone for Sea Turtle Protection","RZSTP","Playa Mexiquillo",0,1,0,63,0,0,"MEX"
"460",1876,"Americas","Mesoamerica","Mexico",18079,"IV",19.95,-105.416667,1986,"Reserve Zone for Sea Turtle Protection","RZSTP","Playa Mismaloya",0,1,0,345,0,0,"MEX"
"461",1672,"Americas","Mesoamerica","Mexico",18074,"IV",17.25,-100.983333,1986,"Reserve Zone for Sea Turtle Protection","RZSTP","Playa Piedra de Tlacoyunque",0,1,0,60,0,0,"MEX"
"462",2111,"Americas","Mesoamerica","Mexico",18096,"IV",23.233,-97.75,1986,"Reserve Zone for Sea Turtle Protection","RZSTP","Playa Rancho Nuevo",0,1,0,88,0,0,"MEX"
"463",1818,"Americas","Mesoamerica","Mexico",18080,"IV",19.416667,-105.016667,1986,"Reserve Zone for Sea Turtle Protection","RZSTP","Playa Teopa",0,1,0,30,0,0,"MEX"
"464",1639,"Americas","Mesoamerica","Mexico",18075,"IV",16.417,-98.650002,1986,"Reserve Zone for Sea Turtle Protection","RZSTP","Playa Tierra Colorada",0,1,0,135,0,0,"MEX"
"465",1917,"Americas","Mesoamerica","Mexico",71021,"Unknown",20.863056,-90.370833,1979,"Other area","ETC","Ría Celestún",1,0,0,59130,0,0,"MEX"
"466",1965,"Americas","Mesoamerica","Mexico",71022,"Unknown",21.535833,-87.891944,1979,"Other area","ETC","Ría Lagartos",1,1,0,47840,1,1,"MEX"
"467",1966,"Americas","Mesoamerica","Mexico",71022,"Unknown",21.535833,-87.891944,1979,"Other area","ETC","Ría Lagartos",1,1,0,47840,1,1,"MEX"
"468",1967,"Americas","Mesoamerica","Mexico",71022,"Unknown",21.535833,-87.891944,1979,"Other area","ETC","Ría Lagartos",1,1,0,47840,1,1,"MEX"
"469",1822,"Americas","Mesoamerica","Mexico",12431,"VI",19.495833,-87.715833,1986,"Biosphere Reserve (National)","BR(N)","Sian Ka'an",1,1,1,528147,0,1,"MEX"
"470",1823,"Americas","Mesoamerica","Mexico",12431,"VI",19.495833,-87.715833,1986,"Biosphere Reserve (National)","BR(N)","Sian Ka'an",1,1,1,528147,0,1,"MEX"
"471",1824,"Americas","Mesoamerica","Mexico",12431,"VI",19.495833,-87.715833,1986,"Biosphere Reserve (National)","BR(N)","Sian Ka'an",1,1,1,528147,0,1,"MEX"
"472",1825,"Americas","Mesoamerica","Mexico",12431,"VI",19.495833,-87.715833,1986,"Biosphere Reserve (National)","BR(N)","Sian Ka'an",1,1,1,528147,0,1,"MEX"
"473",1826,"Americas","Mesoamerica","Mexico",12431,"VI",19.495833,-87.715833,1986,"Biosphere Reserve (National)","BR(N)","Sian Ka'an",1,1,1,528147,0,1,"MEX"
"474",1827,"Americas","Mesoamerica","Mexico",12431,"VI",19.495833,-87.715833,1986,"Biosphere Reserve (National)","BR(N)","Sian Ka'an",1,1,1,528147,0,1,"MEX"
"475",1828,"Americas","Mesoamerica","Mexico",12431,"VI",19.495833,-87.715833,1986,"Biosphere Reserve (National)","BR(N)","Sian Ka'an",1,1,1,528147,0,1,"MEX"
"476",1829,"Americas","Mesoamerica","Mexico",12431,"VI",19.495833,-87.715833,1986,"Biosphere Reserve (National)","BR(N)","Sian Ka'an",1,1,1,528147,0,1,"MEX"
"477",1830,"Americas","Mesoamerica","Mexico",12431,"VI",19.495833,-87.715833,1986,"Biosphere Reserve (National)","BR(N)","Sian Ka'an",1,1,1,528147,0,1,"MEX"
"478",1831,"Americas","Mesoamerica","Mexico",12431,"VI",19.495833,-87.715833,1986,"Biosphere Reserve (National)","BR(N)","Sian Ka'an",1,1,1,528147,0,1,"MEX"
"479",1832,"Americas","Mesoamerica","Mexico",12431,"VI",19.495833,-87.715833,1986,"Biosphere Reserve (National)","BR(N)","Sian Ka'an",1,1,1,528147,0,1,"MEX"
"480",1833,"Americas","Mesoamerica","Mexico",12431,"VI",19.495833,-87.715833,1986,"Biosphere Reserve (National)","BR(N)","Sian Ka'an",1,1,1,528147,0,1,"MEX"
"481",1834,"Americas","Mesoamerica","Mexico",12431,"VI",19.495833,-87.715833,1986,"Biosphere Reserve (National)","BR(N)","Sian Ka'an",1,1,1,528147,0,1,"MEX"
"482",1835,"Americas","Mesoamerica","Mexico",12431,"VI",19.495833,-87.715833,1986,"Biosphere Reserve (National)","BR(N)","Sian Ka'an",1,1,1,528147,0,1,"MEX"
"483",1836,"Americas","Mesoamerica","Mexico",12431,"VI",19.495833,-87.715833,1986,"Biosphere Reserve (National)","BR(N)","Sian Ka'an",1,1,1,528147,0,1,"MEX"
"484",1837,"Americas","Mesoamerica","Mexico",12431,"VI",19.495833,-87.715833,1986,"Biosphere Reserve (National)","BR(N)","Sian Ka'an",1,1,1,528147,0,1,"MEX"
"485",1838,"Americas","Mesoamerica","Mexico",12431,"VI",19.495833,-87.715833,1986,"Biosphere Reserve (National)","BR(N)","Sian Ka'an",1,1,1,528147,0,1,"MEX"
"486",1747,"Americas","Mesoamerica","Mexico",5413,"VI",18.383333,-94.866667,1980,"Natural Resources Protection Area","NarPA","Sierra de Santa Marta (Los Tuxtlas)",0,1,0,80000,0,0,"MEX"
"487",1794,"Americas","Mesoamerica","Mexico",67673,"II",19.162527,-95.942403,1992,"National Marine Park","NMP","Sistema Arrecifal Veracruzano",1,1,1,52239,1,0,"MEX"
"488",1888,"Americas","Mesoamerica","Mexico",5407,"V",20.216667,-87.416667,1981,"National Park","NP","Tulum",0,1,0,664,0,1,"MEX"
"489",1778,"Americas","Mesoamerica","Mexico",5411,"VI",18.55,-95.166667,1979,"Natural Resources Protection Area","NarPA","Volcán de San Martín (Los Tuxtlas)",0,1,0,5533,0,0,"MEX"
"490",1721,"Americas","Mesoamerica","Mexico",220038,"II",18.25,-87.766667,2000,"National Marine Park","NMP","Xcalak",1,0,1,0,0,0,"MEX"
"491",1960,"Americas","Mesoamerica","Mexico",103168,"IV",21.492104,-87.279191,1994,"Flora and Fauna Protection Area","FFPA","Yum-Balam",0,1,0,154052,0,1,"MEX"
"492",1562,"Americas","Mesoamerica","Nicaragua",12667,"Ia",14.395,-82.81,1991,"Marine Reserve","RMar","Cayos Miskitos",1,1,1,50000,1,1,"NIC"
"493",1430,"Americas","Mesoamerica","Nicaragua",12652,"IV",12.866667,-87.2,1983,"Nature Reserve","RNl","Estero Real",0,1,0,55000,0,1,"NIC"
"494",1573,"Americas","Mesoamerica","Nicaragua",12676,"IV",14.666667,-83.316667,1991,"Nature Reserve","RNl","Lagunas Bismuna T.Raya - Leimus",0,1,0,11800,0,1,"NIC"
"495",1360,"Americas","Mesoamerica","Nicaragua",12658,"IV",11.55,-86.183333,1983,"Wildlife Refuge (Refugio de Vida Silvestre)","RVS","Río Escalante-Chococente",0,1,0,4800,0,0,"NIC"
"496",2116,"Americas","Northern Caribbean","Bahamas",13959,"IV",23.417,-75.083,1962,"Wild Bird Reserve","WBR","A rock in the Exuma Cays",0,1,0,1,0,0,"BHS"
"497",2121,"Americas","Northern Caribbean","Bahamas",13944,"IV",23.816999,-76.199997,1951,"Wild Bird Reserve","WBR","Betty Cay",0,1,0,1,0,0,"BHS"
"498",2124,"Americas","Northern Caribbean","Bahamas",13940,"IV",23.833,-76.199997,1951,"Wild Bird Reserve","WBR","Big Darby Island",0,1,0,202,0,0,"BHS"
"499",2130,"Americas","Northern Caribbean","Bahamas",13948,"IV",23.9,-76.266998,1954,"Wild Bird Reserve","WBR","Big Galliot Cay",0,1,0,8,0,0,"BHS"
"500",2123,"Americas","Northern Caribbean","Bahamas",13939,"IV",23.833,-75.116997,1988,"National Park","NP","Black Sound Cay",1,1,0,1,0,1,"BHS"
"501",2088,"Americas","Northern Caribbean","Bahamas",13949,"IV",22.667,-75.967003,1954,"Wild Bird Reserve","WBR","Channel Cays and Flat Cay",0,1,0,18,0,0,"BHS"
"502",2122,"Americas","Northern Caribbean","Bahamas",2187,"II",23.833,-75.116997,1973,"National Park","NP","Conception Island",1,1,1,809,0,1,"BHS"
"503",2154,"Americas","Northern Caribbean","Bahamas",2228,"II",24.517,-76.650002,1958,"National Park","NP","Exuma Cays Land and Sea Park",1,1,1,45584,0,1,"BHS"
"504",2133,"Americas","Northern Caribbean","Bahamas",13943,"IV",24.083,-74.5,1951,"Wild Bird Reserve","WBR","Goat Cay",0,1,0,12,0,0,"BHS"
"505",2125,"Americas","Northern Caribbean","Bahamas",13946,"IV",23.833,-77.417,1954,"Wild Bird Reserve","WBR","Grassy Creek Cays and Rocks",0,1,0,172,0,0,"BHS"
"506",2203,"Americas","Northern Caribbean","Bahamas",13942,"IV",24.983,-77.449997,1951,"Wild Bird Reserve","WBR","Guana Cay",0,1,0,2,0,0,"BHS"
"507",2284,"Americas","Northern Caribbean","Bahamas",13945,"IV",26.9,-77.333,1954,"Wild Bird Reserve","WBR","High Cay",0,1,0,8,0,0,"BHS"
"508",1926,"Americas","Northern Caribbean","Bahamas",24,"II",21.092978,-73.366572,1965,"National Park","NP","Inagua",1,1,1,74333,0,1,"BHS"
"509",2206,"Americas","Northern Caribbean","Bahamas",13434,"IV",25.066999,-77.417,1968,"Wild Bird Reserve","WBR","Lake Cunningham",0,1,0,70,0,1,"BHS"
"510",2205,"Americas","Northern Caribbean","Bahamas",13433,"IV",25.049999,-77.532997,1968,"Wild Bird Reserve","WBR","Lightbourn Creek (Waterloo)",0,1,0,200,0,1,"BHS"
"511",2126,"Americas","Northern Caribbean","Bahamas",13941,"IV",23.833,-76.182999,1951,"Wild Bird Reserve","WBR","Little Derby Island",0,1,0,136,0,0,"BHS"
"512",2160,"Americas","Northern Caribbean","Bahamas",13958,"IV",24.583,-75.932999,1961,"Wild Bird Reserve","WBR","Little San Salvador (Little Island)",1,1,1,182,0,0,"BHS"
"513",2275,"Americas","Northern Caribbean","Bahamas",11841,"II",26.583,-78.5,1982,"National Park","NP","Lucayan",1,1,0,16,0,1,"BHS"
"514",2220,"Americas","Northern Caribbean","Bahamas",13952,"IV",25.466999,-77.833,1955,"Wild Bird Reserve","WBR","Mammy Rhoda Cay",0,1,0,1,0,0,"BHS"
"515",2207,"Americas","Northern Caribbean","Bahamas",13955,"IV",25.083,-77.317001,1956,"Wild Bird Reserve","WBR","Paradise Island",0,1,0,283,0,1,"BHS"
"516",2263,"Americas","Northern Caribbean","Bahamas",11839,"II",26.4077,-77,1981,"National Park","NP","Pelican Cays Land and Sea",1,1,1,850,0,0,"BHS"
"517",2273,"Americas","Northern Caribbean","Bahamas",11840,"II",26.549999,-78.516998,1971,"National Park","NP","Peterson Cay",1,1,1,1,0,1,"BHS"
"518",1929,"Americas","Northern Caribbean","Bahamas",26,"Ia",21.133333,-73.583333,1965,"Managed Nature Reserve","MNR","Union Creek",1,1,0,1813,1,1,"BHS"
"519",2117,"Americas","Northern Caribbean","Bahamas",13947,"IV",23.667,-77.417,1954,"Wild Bird Reserve","WBR","Washerwomans Cut Cays",0,1,0,79,0,0,"BHS"
"520",2202,"Americas","Northern Caribbean","Bahamas",61787,"IV",24.950001,-76.417,1955,"Wild Bird Reserve","WBR","Water Cay",1,0,0,3,0,0,"BHS"
"521",2164,"Americas","Northern Caribbean","Bahamas",13953,"IV",24.667,-76.25,1955,"Wild Bird Reserve","WBR","Wood Cay",0,1,0,6,0,0,"BHS"
"522",2541,"Americas","Northern Caribbean","Bermuda",220215,"III",32.253333,-64.976667,0,"Protected Area","PA","Airplane",1,0,1,28,0,0,"BMU"
"523",2589,"Americas","Northern Caribbean","Bermuda",220205,"III",32.475,-64.656667,0,"Protected Area","PA","Aristo",1,0,1,28,0,0,"BMU"
"524",2547,"Americas","Northern Caribbean","Bermuda",220216,"III",32.271667,-64.975,0,"Protected Area","PA","Blanche King",1,0,1,28,0,0,"BMU"
"525",2588,"Americas","Northern Caribbean","Bermuda",220229,"III",32.461667,-64.835,0,"Protected Area","PA","Caraquet",1,0,1,28,0,0,"BMU"
"526",2562,"Americas","Northern Caribbean","Bermuda",12766,"IV",32.346484,-64.661851,1979,"Nature Reserve","NR","Castle Harbour Islands",0,1,0,13,0,1,"BMU"
"527",2563,"Americas","Northern Caribbean","Bermuda",12766,"IV",32.346484,-64.661851,1979,"Nature Reserve","NR","Castle Harbour Islands",0,1,0,13,0,1,"BMU"
"528",2564,"Americas","Northern Caribbean","Bermuda",12766,"IV",32.346484,-64.661851,1979,"Nature Reserve","NR","Castle Harbour Islands",0,1,0,13,0,1,"BMU"
"529",2565,"Americas","Northern Caribbean","Bermuda",12766,"IV",32.346484,-64.661851,1979,"Nature Reserve","NR","Castle Harbour Islands",0,1,0,13,0,1,"BMU"
"530",2566,"Americas","Northern Caribbean","Bermuda",12766,"IV",32.346484,-64.661851,1979,"Nature Reserve","NR","Castle Harbour Islands",0,1,0,13,0,1,"BMU"
"531",2567,"Americas","Northern Caribbean","Bermuda",12766,"IV",32.346484,-64.661851,1979,"Nature Reserve","NR","Castle Harbour Islands",0,1,0,13,0,1,"BMU"
"532",2568,"Americas","Northern Caribbean","Bermuda",12766,"IV",32.346484,-64.661851,1979,"Nature Reserve","NR","Castle Harbour Islands",0,1,0,13,0,1,"BMU"
"533",2569,"Americas","Northern Caribbean","Bermuda",12766,"IV",32.346484,-64.661851,1979,"Nature Reserve","NR","Castle Harbour Islands",0,1,0,13,0,1,"BMU"
"534",2570,"Americas","Northern Caribbean","Bermuda",12766,"IV",32.346484,-64.661851,1979,"Nature Reserve","NR","Castle Harbour Islands",0,1,0,13,0,1,"BMU"
"535",2571,"Americas","Northern Caribbean","Bermuda",12766,"IV",32.346484,-64.661851,1979,"Nature Reserve","NR","Castle Harbour Islands",0,1,0,13,0,1,"BMU"
"536",2572,"Americas","Northern Caribbean","Bermuda",12766,"IV",32.346484,-64.661851,1979,"Nature Reserve","NR","Castle Harbour Islands",0,1,0,13,0,1,"BMU"
"537",2559,"Americas","Northern Caribbean","Bermuda",220220,"III",32.328611,-64.832222,0,"Protected Area","PA","Commissioner's Point Area",1,0,1,12,0,0,"BMU"
"538",2575,"Americas","Northern Caribbean","Bermuda",220223,"III",32.36,-64.913333,0,"Protected Area","PA","Constellation Area",1,0,1,79,0,0,"BMU"
"539",2592,"Americas","Northern Caribbean","Bermuda",220202,"III",32.485,-64.708333,0,"Protected Area","PA","Cristobal Colon",1,0,1,28,0,0,"BMU"
"540",2552,"Americas","Northern Caribbean","Bermuda",14543,"IV",32.304806,-64.881278,1986,"Nature Reserve","NR","Daniel's Island",0,1,0,1,0,0,"BMU"
"541",2551,"Americas","Northern Caribbean","Bermuda",220217,"III",32.286667,-64.983333,0,"Protected Area","PA","Darlington",1,0,1,28,0,0,"BMU"
"542",2579,"Americas","Northern Caribbean","Bermuda",220225,"III",32.39,-64.885,0,"Protected Area","PA","Eastern Blue Cut",1,0,1,113,0,0,"BMU"
"543",2539,"Americas","Northern Caribbean","Bermuda",12768,"Unknown",32.25,-64.8667,1981,"Private Reserve","PrivR","Evans Bay",0,1,0,0,0,1,"BMU"
"544",2545,"Americas","Northern Caribbean","Bermuda",14545,"IV",32.266998,-64.800003,1986,"Nature Reserve","NR","Godet's Island",0,1,0,1,0,0,"BMU"
"545",2543,"Americas","Northern Caribbean","Bermuda",14546,"IV",32.266998,-64.800003,1986,"Nature Reserve","NR","Godet's Rock",0,1,0,1,0,0,"BMU"
"546",2544,"Americas","Northern Caribbean","Bermuda",14546,"IV",32.266998,-64.800003,1986,"Nature Reserve","NR","Godet's Rock",0,1,0,1,0,0,"BMU"
"547",2549,"Americas","Northern Caribbean","Bermuda",12770,"Unknown",32.2833,-64.8333,1976,"Private Reserve","PrivR","Great Sound",0,1,0,0,0,0,"BMU"
"548",2550,"Americas","Northern Caribbean","Bermuda",12771,"Unknown",32.2833,-64.8,1976,"Private Reserve","PrivR","Hamilton Harbour",0,1,0,0,0,0,"BMU"
"549",2561,"Americas","Northern Caribbean","Bermuda",12769,"Unknown",32.3333,-64.7333,1976,"Private Reserve","PrivR","Harrington Sound",0,1,0,0,0,1,"BMU"
"550",2537,"Americas","Northern Caribbean","Bermuda",220211,"III",32.24,-64.79,0,"Protected Area","PA","Hermes & Minnie Breslauer",1,0,1,79,0,0,"BMU"
"551",2586,"Americas","Northern Caribbean","Bermuda",220228,"III",32.458333,-64.813333,0,"Protected Area","PA","Hog Breaker",1,0,1,28,0,0,"BMU"
"552",2548,"Americas","Northern Caribbean","Bermuda",14547,"IV",32.283001,-64.75,1986,"Nature Reserve","NR","Hungry Bay",0,1,0,3,0,1,"BMU"
"553",2557,"Americas","Northern Caribbean","Bermuda",220209,"III",32.323333,-64.695,0,"Protected Area","PA","Kate",1,0,1,28,0,0,"BMU"
"554",2577,"Americas","Northern Caribbean","Bermuda",220222,"III",32.363333,-64.913333,0,"Protected Area","PA","Lartington",1,0,1,28,0,0,"BMU"
"555",2555,"Americas","Northern Caribbean","Bermuda",220218,"III",32.318333,-64.975,0,"Protected Area","PA","L'Herminie",1,0,1,28,0,0,"BMU"
"556",2578,"Americas","Northern Caribbean","Bermuda",12772,"IV",32.367001,-64.699997,1980,"Nature Reserve","NR","Lovers Lake",0,1,0,2,0,1,"BMU"
"557",2587,"Americas","Northern Caribbean","Bermuda",220230,"III",32.458333,-64.808333,0,"Protected Area","PA","Madiana",1,0,1,28,0,0,"BMU"
"558",2553,"Americas","Northern Caribbean","Bermuda",12773,"Unknown",32.3167,-64.7,0,"Private Reserve","PrivR","Mangrove Lake",0,1,0,12,0,1,"BMU"
"559",2538,"Americas","Northern Caribbean","Bermuda",220212,"III",32.24,-64.79,0,"Protected Area","PA","Marie Celeste",1,0,1,28,0,0,"BMU"
"560",2583,"Americas","Northern Caribbean","Bermuda",220206,"III",32.41,-64.63,0,"Protected Area","PA","Mills Breaker",1,0,1,28,0,0,"BMU"
"561",2576,"Americas","Northern Caribbean","Bermuda",220224,"III",32.361667,-64.913333,0,"Protected Area","PA","Montana",1,0,1,28,0,0,"BMU"
"562",2542,"Americas","Northern Caribbean","Bermuda",220214,"III",32.26,-64.975,0,"Protected Area","PA","North Carolina",1,0,1,28,0,0,"BMU"
"563",2591,"Americas","Northern Caribbean","Bermuda",220203,"III",32.483333,-64.708333,0,"Protected Area","PA","North East Breaker",1,0,1,28,0,0,"BMU"
"564",2590,"Americas","Northern Caribbean","Bermuda",220231,"III",32.475,-64.768333,0,"Protected Area","PA","North Rock",1,0,1,314,0,0,"BMU"
"565",2582,"Americas","Northern Caribbean","Bermuda",61794,"IV",32.401756,-64.789045,1966,"Preserve","Pr","North Shore Coral Reef",1,0,1,13050,0,0,"BMU"
"566",2574,"Americas","Northern Caribbean","Bermuda",220207,"III",32.355,-64.656667,0,"Protected Area","PA","Pelinaion & Rita Zovetto",1,0,1,79,0,0,"BMU"
"567",2560,"Americas","Northern Caribbean","Bermuda",12774,"IV",32.333,-64.733002,1970,"Nature Reserve","NR","Shelly Bay Marsh",0,1,0,2,0,1,"BMU"
"568",2585,"Americas","Northern Caribbean","Bermuda",220227,"III",32.43546,-64.938333,0,"Protected Area","PA","Snake Pit",1,0,1,28,0,0,"BMU"
"569",2554,"Americas","Northern Caribbean","Bermuda",12433,"IV",32.317494,-64.705391,0,"Preserve","Pr","South Shore Coral Reef",1,1,1,450,0,0,"BMU"
"570",2536,"Americas","Northern Caribbean","Bermuda",220213,"III",32.23,-64.863333,0,"Protected Area","PA","South West Breaker Area",1,0,1,113,0,0,"BMU"
"571",2556,"Americas","Northern Caribbean","Bermuda",12767,"IV",32.32,-64.720001,1979,"Nature Reserve","NR","Spittal Pond",0,1,0,14,0,1,"BMU"
"572",2546,"Americas","Northern Caribbean","Bermuda",220210,"III",32.27,-64.776667,0,"Protected Area","PA","Tarpon Hole",1,0,1,28,0,0,"BMU"
"573",2593,"Americas","Northern Caribbean","Bermuda",220204,"III",32.491667,-64.691667,0,"Protected Area","PA","Taunton",1,0,1,28,0,0,"BMU"
"574",2558,"Americas","Northern Caribbean","Bermuda",220208,"III",32.326667,-64.656667,0,"Protected Area","PA","The Cathedral",1,0,1,28,0,0,"BMU"
"575",2532,"Americas","Northern Caribbean","Bermuda",220219,"III",32.179167,-64.79,0,"Protected Area","PA","Vixen",1,0,1,3,0,0,"BMU"
"576",2573,"Americas","Northern Caribbean","Bermuda",28161,"Unknown",32.35,-64.7167,0,"Private Reserve","PrivR","Walsingham",0,1,0,9,0,1,"BMU"
"577",2584,"Americas","Northern Caribbean","Bermuda",220226,"III",32.4173,-64.906667,0,"Protected Area","PA","Xing Da Area",1,0,1,12,0,0,"BMU"
"578",1796,"Americas","Northern Caribbean","Cayman Islands",12781,"IV",19.270942,-81.320073,1986,"Replenishment Zone","RpZ","Bats Cave Beach (Grand Cayman)",1,0,1,31,0,0,"CYM"
"579",1854,"Americas","Northern Caribbean","Cayman Islands",12799,"II",19.683001,-80.082001,1986,"Marine Park","MP","Bloody Bay - Jackson Point (Little Cayman)",1,1,1,161,0,0,"CYM"
"580",1850,"Americas","Northern Caribbean","Cayman Islands",14557,"IV",19.667,-80.067001,1982,"Animal Sanctuary","AnS","Booby Pond and the Rookery S (Little Cay",0,1,0,72,0,1,"CYM"
"581",1812,"Americas","Northern Caribbean","Cayman Islands",12789,"II",19.373537,-81.276247,1986,"Marine Park","MP","Bowse Bluff - Rum Point (Grand Cayman)",1,0,1,60,0,0,"CYM"
"582",1798,"Americas","Northern Caribbean","Cayman Islands",12783,"IV",19.293524,-81.119743,1986,"Replenishment Zone","RpZ","Cayman Dive Lodge (Grand Cayman)",1,1,1,4,0,1,"CYM"
"583",1802,"Americas","Northern Caribbean","Cayman Islands",14554,"IV",19.316999,-81.067001,1976,"Animal Sanctuary","AnS","Colliers Bay Pond S (Grand Cayman)",0,1,0,32,0,1,"CYM"
"584",1857,"Americas","Northern Caribbean","Cayman Islands",12793,"IV",19.687,-79.864998,1986,"Replenishment Zone","RpZ","Coral Isle Club (Cayman Brac)",1,0,1,1,0,0,"CYM"
"585",1856,"Americas","Northern Caribbean","Cayman Islands",12797,"II",19.684,-79.863998,1986,"Marine Park","MP","Dick Sessingers Bay - Beach Point (Cayman Brac)",1,0,1,143,0,0,"CYM"
"586",1799,"Americas","Northern Caribbean","Cayman Islands",12782,"IV",19.296545,-81.177197,1986,"Replenishment Zone","RpZ","Frank Sound RpZ (Grand Cayman)",1,0,1,224,0,0,"CYM"
"587",1816,"Americas","Northern Caribbean","Cayman Islands",12777,"IV",19.393768,-81.377837,1986,"Replenishment Zone","RpZ","Head of Barkers - Flats (Grand Cayman)",1,0,1,365,0,0,"CYM"
"588",1861,"Americas","Northern Caribbean","Cayman Islands",12798,"II",19.712,-79.788002,1986,"Marine Park","MP","Jennifer Bay - Deep Well (Cayman Brac)",1,0,1,61,0,0,"CYM"
"589",1805,"Americas","Northern Caribbean","Cayman Islands",12790,"Ib",19.333333,-81.266667,1986,"Environmental Zone","EnvZ","Little Sound (Grand Cayman)",1,1,1,1731,1,1,"CYM"
"590",1862,"Americas","Northern Caribbean","Cayman Islands",12794,"IV",19.712999,-79.980003,1986,"Replenishment Zone","RpZ","Mary's Bay - East Point (Little Cayman)",1,0,1,180,0,0,"CYM"
"591",1800,"Americas","Northern Caribbean","Cayman Islands",14553,"IV",19.3,-81.216667,1976,"Animal Sanctuary","AnS","Meagre Bay Pond S (Grand Cayman)",0,1,0,38,0,1,"CYM"
"592",1808,"Americas","Northern Caribbean","Cayman Islands",12780,"IV",19.34117,-81.312984,1986,"Replenishment Zone","RpZ","North Sound (Grand Cayman)",1,1,1,3310,1,1,"CYM"
"593",1811,"Americas","Northern Caribbean","Cayman Islands",12787,"II",19.369538,-81.416034,1986,"Marine Park","MP","North West Point-West Bay Cemetery (Grand Cayman)",1,1,1,155,0,0,"CYM"
"594",1847,"Americas","Northern Caribbean","Cayman Islands",12800,"II",19.65,-80.083333,1986,"Marine Park","MP","Preston Bay - Main Channel MP (Little Cayman)",1,1,1,81,0,1,"CYM"
"595",1801,"Americas","Northern Caribbean","Cayman Islands",12784,"IV",19.314162,-81.086881,1986,"Replenishment Zone","RpZ","Radio Mast - Sand Bluff (Grand Cayman)",1,0,1,177,0,0,"CYM"
"596",1858,"Americas","Northern Caribbean","Cayman Islands",12792,"IV",19.691999,-79.846001,1986,"Replenishment Zone","RpZ","Salt Water Point - Beach Point RpZ (Cayman Brac)",1,1,1,26,0,1,"CYM"
"597",1851,"Americas","Northern Caribbean","Cayman Islands",14555,"IV",19.667,-79.883003,1980,"Animal Sanctuary","AnS","Salt Water Pond (Cayman Brac)",0,1,0,24,0,1,"CYM"
"598",1855,"Americas","Northern Caribbean","Cayman Islands",12796,"II",19.683333,-79.866667,1986,"Marine Park","MP","Scotts Anchorage - White Bay (Cayman Brac)",1,0,1,56,0,0,"CYM"
"599",1853,"Americas","Northern Caribbean","Cayman Islands",12795,"IV",19.674,-80.056999,1986,"Replenishment Zone","RpZ","South Hole Sound (Little Cayman)",1,1,1,316,0,1,"CYM"
"600",1806,"Americas","Northern Caribbean","Cayman Islands",12779,"IV",19.333388,-81.284246,1986,"Replenishment Zone","RpZ","South Sound (Grand Cayman)",1,1,1,317,1,1,"CYM"
"601",1807,"Americas","Northern Caribbean","Cayman Islands",12779,"IV",19.333388,-81.284246,1986,"Replenishment Zone","RpZ","South Sound (Grand Cayman)",1,1,1,317,1,1,"CYM"
"602",1817,"Americas","Northern Caribbean","Cayman Islands",12786,"II",19.395951,-81.406906,1986,"Marine Park","MP","Spanish Cove Resort - Jetty (Grand Cayman)",1,0,0,8,0,0,"CYM"
"603",1866,"Americas","Northern Caribbean","Cayman Islands",12791,"IV",19.75,-79.75,1986,"Replenishment Zone","RpZ","Spott Bay (Cayman Brac)",1,1,1,33,1,0,"CYM"
"604",1809,"Americas","Northern Caribbean","Cayman Islands",12785,"IV",19.354821,-81.122286,1986,"Replenishment Zone","RpZ","Spotter Bay - Anchors Point (Grand Cayman)",1,0,0,63,0,0,"CYM"
"605",1803,"Americas","Northern Caribbean","Cayman Islands",12788,"II",19.327564,-81.396949,1986,"Marine Park","MP","Victoria House-Sand Cay Apartments (Grand Cayman)",1,1,1,801,0,0,"CYM"
"606",1810,"Americas","Northern Caribbean","Cayman Islands",12778,"IV",19.363087,-81.405843,1986,"Replenishment Zone","RpZ","West Bay Cemetery - Victoria House (Grand Cayman)",1,1,1,69,0,0,"CYM"
"607",1898,"Americas","Northern Caribbean","Cuba",168260,"V",20.575,-74.701944,0,"Parque Nacional","PN","Alejandro de Humboldt",1,1,1,71138,0,1,"CUB"
"608",1871,"Americas","Northern Caribbean","Cuba",71016,"IV",19.85,-75.5,0,"Hunting Reserve","HR","Baconao",1,0,0,79500,0,0,"CUB"
"609",1925,"Americas","Northern Caribbean","Cuba",36133,"II",21.089204,-75.974314,0,"Marine National Park","MNP","Bahia del Naranjo",1,0,0,6800,0,0,"CUB"
"610",1885,"Americas","Northern Caribbean","Cuba",13444,"Unknown",20.07,-74.67,0,"Other area","ETC","Baitiquiri",0,1,0,1900,0,0,"CUB"
"611",2005,"Americas","Northern Caribbean","Cuba",1505,"Ia",21.955999,-84.299004,1963,"Nature Reserve","NR","Cabo Corrientes",0,1,0,1578,0,0,"CUB"
"612",2051,"Americas","Northern Caribbean","Cuba",168258,"V",22.396111,-79.243056,0,"Parque Nacional","PN","Caguanes",0,1,0,20487,0,0,"CUB"
"613",1927,"Americas","Northern Caribbean","Cuba",36108,"V",21.108056,-78.723056,0,"Touristic Natural Area","TNA","Cayo Algodon Grande",0,1,0,3600,0,0,"CUB"
"614",1984,"Americas","Northern Caribbean","Cuba",37250,"V",21.731944,-79.963056,0,"Touristic Natural Area","TNA","Cayo Blanco de Casilida",1,0,0,1800,0,0,"CUB"
"615",1897,"Americas","Northern Caribbean","Cuba",36109,"II",20.561944,-78.391111,0,"Marine National Park","MNP","Cayo Caguama",1,1,0,1200,0,0,"CUB"
"616",2058,"Americas","Northern Caribbean","Cuba",13486,"IV",22.417,-79.150002,1966,"Managed Flora Reserve","MFlR","Cayo Caguanes/Cayos de Piedra",1,1,0,1069,0,0,"CUB"
"617",1973,"Americas","Northern Caribbean","Cuba",13449,"Ia",21.622147,-82.047118,1986,"Wildlife Refuge","WRef","Cayo Cantiles",0,1,0,3800,0,1,"CUB"
"618",1974,"Americas","Northern Caribbean","Cuba",13449,"Ia",21.622147,-82.047118,1986,"Wildlife Refuge","WRef","Cayo Cantiles",0,1,0,3800,0,1,"CUB"
"619",1975,"Americas","Northern Caribbean","Cuba",13449,"Ia",21.622147,-82.047118,1986,"Wildlife Refuge","WRef","Cayo Cantiles",0,1,0,3800,0,1,"CUB"
"620",1976,"Americas","Northern Caribbean","Cuba",13449,"Ia",21.622147,-82.047118,1986,"Wildlife Refuge","WRef","Cayo Cantiles",0,1,0,3800,0,1,"CUB"
"621",2062,"Americas","Northern Caribbean","Cuba",168265,"IV",22.483889,-78.526111,0,"Reserva Ecol=gica","RE","Cayo Coco",0,1,1,28298,0,1,"CUB"
"622",2063,"Americas","Northern Caribbean","Cuba",13613,"V",22.489,-78.468002,1986,"Touristic Natural Area","TNA","Cayo Coco/Cayo Guillermo",1,1,1,32000,0,1,"CUB"
"623",2084,"Americas","Northern Caribbean","Cuba",168257,"V",22.593889,-78.66,0,"Parque Nacional","PN","Cayo Guillermo-Santa Maria",0,1,0,0,0,0,"CUB"
"624",1977,"Americas","Northern Caribbean","Cuba",13632,"V",21.638041,-81.491232,1986,"Touristic Natural Area","TNA","Cayo Largo - Cayo Rosario",0,1,0,18610,0,1,"CUB"
"625",2030,"Americas","Northern Caribbean","Cuba",13495,"V",22.275843,-78.053096,1986,"National Park","NP","Cayo Romano",1,1,1,92000,0,1,"CUB"
"626",2031,"Americas","Northern Caribbean","Cuba",13495,"V",22.275843,-78.053096,1986,"National Park","NP","Cayo Romano",1,1,1,92000,0,1,"CUB"
"627",2032,"Americas","Northern Caribbean","Cuba",13495,"V",22.275843,-78.053096,1986,"National Park","NP","Cayo Romano",1,1,1,92000,0,1,"CUB"
"628",2033,"Americas","Northern Caribbean","Cuba",13495,"V",22.275843,-78.053096,1986,"National Park","NP","Cayo Romano",1,1,1,92000,0,1,"CUB"
"629",2034,"Americas","Northern Caribbean","Cuba",13495,"V",22.275843,-78.053096,1986,"National Park","NP","Cayo Romano",1,1,1,92000,0,1,"CUB"
"630",2035,"Americas","Northern Caribbean","Cuba",13495,"V",22.275843,-78.053096,1986,"National Park","NP","Cayo Romano",1,1,1,92000,0,1,"CUB"
"631",1980,"Americas","Northern Caribbean","Cuba",36102,"V",21.678889,-77.283889,0,"Touristic Natural Area","TNA","Cayo Sabinal",1,1,1,33500,0,0,"CUB"
"632",1912,"Americas","Northern Caribbean","Cuba",13616,"V",20.759704,-75.522596,1986,"Touristic Natural Area","TNA","Cayo Saetia",1,1,0,4100,0,1,"CUB"
"633",2087,"Americas","Northern Caribbean","Cuba",36101,"V",22.655,-79.011944,0,"Touristic Natural Area","TNA","Cayo Santa Marfa",0,1,0,6250,0,0,"CUB"
"634",1951,"Americas","Northern Caribbean","Cuba",36107,"IV",21.412052,-78.812391,0,"Wildlife Refuge","WRef","Cayos de Ana Maria",1,1,1,6900,0,1,"CUB"
"635",2049,"Americas","Northern Caribbean","Cuba",32359,"V",22.391111,-82.076944,0,"Parque Nacional","PN","Cienaga de Zapata",1,1,1,435430,0,1,"CUB"
"636",1899,"Americas","Northern Caribbean","Cuba",36123,"IV",20.596796,-77.150771,0,"Wildlife Refuge","WRef","Delta del Cauto",1,0,0,60000,0,0,"CUB"
"637",1872,"Americas","Northern Caribbean","Cuba",20202,"II",19.866667,-77.55,1980,"Parque Nacional","PN","Desembarco del Granma",0,1,0,32636,0,1,"CUB"
"638",1988,"Americas","Northern Caribbean","Cuba",168268,"IV",21.791944,-77.596111,0,"Refugio de Fauna","RF","Desembocadura del Rfo Mßximo-Laguna Sabi",0,1,0,0,0,0,"CUB"
"639",2004,"Americas","Northern Caribbean","Cuba",12712,"Ia",21.948999,-84.629997,1963,"Nature Reserve","NR","El Veral",1,1,0,7535,0,1,"CUB"
"640",1884,"Americas","Northern Caribbean","Cuba",12711,"V",20.062,-76.531998,1980,"Integrated Management Area","IMA","Gran Parque Sierra Maestra",1,1,0,527000,0,0,"CUB"
"641",1991,"Americas","Northern Caribbean","Cuba",168261,"V",21.835,-84.746111,0,"Parque Nacional","PN","Guanahacabibes",0,1,0,39826,0,1,"CUB"
"642",1877,"Americas","Northern Caribbean","Cuba",20209,"IV",19.959999,-75.422997,1980,"Wildlife Refuge","WRef","Hatibonico",0,1,0,5220,0,0,"CUB"
"643",2085,"Americas","Northern Caribbean","Cuba",36098,"V",22.626062,-79.12002,0,"Integrated Management Area","IMA","Humedal Núcleo de Sabana - Camaguey",1,1,1,178908,0,1,"CUB"
"644",2086,"Americas","Northern Caribbean","Cuba",36098,"V",22.626062,-79.12002,0,"Integrated Management Area","IMA","Humedal Núcleo de Sabana - Camaguey",1,1,1,178908,0,1,"CUB"
"645",2109,"Americas","Northern Caribbean","Cuba",13628,"Unknown",23.144379,-81.837665,1986,"Other area","ETC","Jibacoa Bacunayagua",0,1,0,30000,0,0,"CUB"
"646",2050,"Americas","Northern Caribbean","Cuba",14565,"Unknown",22.391111,-82.076944,1959,"Other area","ETC","La Cienega de Zapata",1,1,0,50000,0,1,"CUB"
"647",1956,"Americas","Northern Caribbean","Cuba",36121,"V",21.458607,-76.996122,0,"Integrated Management Area","IMA","La Isleta - Nuevas Grandes",1,0,0,13000,0,0,"CUB"
"648",2106,"Americas","Northern Caribbean","Cuba",168267,"IV",22.853889,-79.721111,0,"Refugio de Fauna","RF","Lanzanillo Pajonal",0,1,0,0,0,0,"CUB"
"649",2012,"Americas","Northern Caribbean","Cuba",13609,"IV",22.110001,-81.269997,1936,"Wildlife Refuge","WRef","Las Salinas",1,1,0,31800,0,0,"CUB"
"650",1930,"Americas","Northern Caribbean","Cuba",20211,"Unknown",21.14,-75.851944,1986,"Other area","ETC","Peninsula de Saetia",0,1,0,4154,0,0,"CUB"
"651",2003,"Americas","Northern Caribbean","Cuba",71017,"IV",21.93,-84.708056,0,"Hunting Reserve","HR","Peninsula Guanahacabibes",1,0,0,101500,0,0,"CUB"
"652",1896,"Americas","Northern Caribbean","Cuba",36096,"II",20.537001,-75.481003,1930,"National Park","NP","Pico Cristal",1,1,1,15000,0,1,"CUB"
"653",1969,"Americas","Northern Caribbean","Cuba",168264,"IV",21.578056,-82.568056,0,"Reserva Ecol=gica","RE","Punta del Este",0,1,0,9736,0,1,"CUB"
"654",1970,"Americas","Northern Caribbean","Cuba",36097,"V",21.578056,-82.568056,0,"Touristic Natural Area","TNA","Punta del Este",0,1,0,5300,0,1,"CUB"
"655",1971,"Americas","Northern Caribbean","Cuba",31514,"II",21.6,-83.183333,1985,"Parque Nacional Marino","PNM","Punta Francés - Punta Pederales",1,1,1,17424,1,1,"CUB"
