"","ID","REGION","SUBREGION","COUNTRY","PROGRAM_NAME","PROGRAM_CODE","YEAR","SITE_CODE","SITE_NAME","LAT","LON","WATER_DEPTH","SOURCES","COUNTRY_CODE"
"1",9002426,"","","","Reef Check","RC","2003","72.40.855W.18.56.012N","Bo wout montrois",18.9335333333333,-72.6809166666667,"","Reef Check Foundation, rcdata@reefcheck.org","Haiti"
"2",9002422,"","","","Reef Check","RC","2003","72.38.532W.18.48.510N","Ile Fa (Lighthouse Island)",18.8039722222222,-72.6503888888889,"","Reef Check Foundation, rcdata@reefcheck.org","Haiti"
"3",9002425,"","","","Reef Check","RC","2003","72.39.107W.18.47.604N","Ile Sud",18.7933888888889,-72.6517777777778,"","Reef Check Foundation, rcdata@reefcheck.org","Haiti"
"4",9002423,"","","","Reef Check","RC","2003","72.38.532W.18.48.51N","Ti 'Teal (Likkle Hiland)",18.8085,-72.6421944444445,"","Reef Check Foundation, rcdata@reefcheck.org","Haiti"
"5",9002424,"","","","Reef Check","RC","2003","72.38.850W.18.54.827N","Trou Forban",18.9137777777778,-72.6475,"","Reef Check Foundation, rcdata@reefcheck.org","Haiti"
"NA",NA,NA,NA,NA,NA,NA,NA,NA,NA,NA,NA,NA,NA,NA
"7",8000970,"","","Colombia (Atlantic)","Caribbean Coastal Marine Productivity Program","CARICOMP","1993, 1994, 1995, 1996, 1997, 1998","","Chengue Bay 11N074W0010",11.3333301544189,-74.15,"12","Dulcie Linton, dmlinton@uwimona.edu.jm","COL_ATL"
"8",94001344,"","","Colombia (Atlantic)","Sistema Nacionalde Monitoreo de Arrecifes Coralinos en  Colombia","SIMAC","1998, 1999, 2000, 2001, 2002","","Acuario Original",12.511833190918,-81.71616,"12","Jaime Garzon-Ferreira, jgarzon@invemar.org.co","COL_ATL"
"9",94001345,"","","Colombia (Atlantic)","Sistema Nacionalde Monitoreo de Arrecifes Coralinos en  Colombia","SIMAC","1998, 1999, 2000, 2001, 2002","","Acuario Replica",12.548999786377,-81.697,"12","Jaime Garzon-Ferreira, jgarzon@invemar.org.co","COL_ATL"
"10",94001346,"","","Colombia (Atlantic)","Sistema Nacionalde Monitoreo de Arrecifes Coralinos en  Colombia","SIMAC","2000, 2001, 2002","","Bar Medio",13.3713836669922,-81.697,"12","Jaime Garzon-Ferreira, jgarzon@invemar.org.co","COL_ATL"
"11",94001347,"","","Colombia (Atlantic)","Sistema Nacionalde Monitoreo de Arrecifes Coralinos en  Colombia","SIMAC","2000, 2001, 2002","","Bar somero",13.367166519165,-81.397,"6","Jaime Garzon-Ferreira, jgarzon@invemar.org.co","COL_ATL"
"12",94001337,"","","Colombia (Atlantic)","Sistema Nacionalde Monitoreo de Arrecifes Coralinos en  Colombia","SIMAC","1998, 1999, 2000, 2001","","Canal",13.3987169265747,-81.39706,"18","Jaime Garzon-Ferreira, jgarzon@invemar.org.co","COL_ATL"
"13",94001340,"","","Colombia (Atlantic)","Sistema Nacionalde Monitoreo de Arrecifes Coralinos en  Colombia","SIMAC","2000, 2002, 2003","","Ceycén",9.70583343505859,-75.86584,"12","Jaime Garzon-Ferreira, jgarzon@invemar.org.co","COL_ATL"
"14",94001330,"","","Colombia (Atlantic)","Sistema Nacionalde Monitoreo de Arrecifes Coralinos en  Colombia","SIMAC","1993, 1994, 1995, 1996, 1997, 1998, 1999, 2000, 2001, 2002","","Chengue Bay",11.1333332061768,-74.33334,"18","Jaime Garzon-Ferreira, jgarzon@invemar.org.co","COL_ATL"
"15",94001350,"","","Colombia (Atlantic)","Sistema Nacionalde Monitoreo de Arrecifes Coralinos en  Colombia","SIMAC","1998, 1999, 2000, 2001","","El Morro Santa Marta",11.2490282058716,-74.23186,"12","Jaime Garzon-Ferreira, jgarzon@invemar.org.co","COL_ATL"
"16",94001348,"","","Colombia (Atlantic)","Sistema Nacionalde Monitoreo de Arrecifes Coralinos en  Colombia","SIMAC"," 2000, 2001, 2002","","Emisario San Andrés",12.568699836731,-81.7258,"12","Jaime Garzon-Ferreira, jgarzon@invemar.org.co","COL_ATL"
"17",94001336,"","","Colombia (Atlantic)","Sistema Nacionalde Monitoreo de Arrecifes Coralinos en  Colombia","SIMAC","1998, 1999, 2000, 2001, 2002","","La Iguana",12.513879776001,-81.74639,"18","Jaime Garzon-Ferreira, jgarzon@invemar.org.co","COL_ATL"
"18",94001349,"","","Colombia (Atlantic)","Sistema Nacionalde Monitoreo de Arrecifes Coralinos en  Colombia","SIMAC","1998, 1999, 2000, 2001, 2002","","Little reef",12.606388092041,-81.7325,"12","Jaime Garzon-Ferreira, jgarzon@invemar.org.co","COL_ATL"
"19",94001341,"","","Colombia (Atlantic)","Sistema Nacionalde Monitoreo de Arrecifes Coralinos en  Colombia","SIMAC","2002, 2003","","Mangle",9.77741622924805,-75.78539,"13","Jaime Garzon-Ferreira, jgarzon@invemar.org.co","COL_ATL"
"20",94001342,"","","Colombia (Atlantic)","Sistema Nacionalde Monitoreo de Arrecifes Coralinos en  Colombia","SIMAC","2002, 2003","","Minalta",9.79058361053467,-75.92339,"6","Jaime Garzon-Ferreira, jgarzon@invemar.org.co","COL_ATL"
"21",94001334,"","","Colombia (Atlantic)","Sistema Nacionalde Monitoreo de Arrecifes Coralinos en  Colombia","SIMAC","1998, 1999, 2001, 2002","","Pavitos",10.1748609542847,-75.77064,"18","Jaime Garzon-Ferreira, jgarzon@invemar.org.co","COL_ATL"
"22",94001339,"","","Colombia (Atlantic)","Sistema Nacionalde Monitoreo de Arrecifes Coralinos en  Colombia","SIMAC","1998, 1999, 2000, 2001, 2002","","Punta Betín",11.2538890838623,-74.22305,"12","Jaime Garzon-Ferreira, jgarzon@invemar.org.co","COL_ATL"
"23",94001338,"","","Colombia (Atlantic)","Sistema Nacionalde Monitoreo de Arrecifes Coralinos en  Colombia","SIMAC","","","San Felipe",13.3655166625977,-81.40479,"12","Jaime Garzon-Ferreira, jgarzon@invemar.org.co","COL_ATL"
"24",94001333,"","","Colombia (Atlantic)","Sistema Nacionalde Monitoreo de Arrecifes Coralinos en  Colombia","SIMAC","1998, 1999, 2001, 2002","","Tesoro",10.2341947555542,-75.74644,"18","Jaime Garzon-Ferreira, jgarzon@invemar.org.co","COL_ATL"
"25",94001343,"","","Colombia (Atlantic)","Sistema Nacionalde Monitoreo de Arrecifes Coralinos en  Colombia","SIMAC","2002, 2003","","Tiosolda",9.82194423675537,-75.89083,"12","Jaime Garzon-Ferreira, jgarzon@invemar.org.co","COL_ATL"
"26",94001335,"","","Colombia (Atlantic)","Sistema Nacionalde Monitoreo de Arrecifes Coralinos en  Colombia","SIMAC","1998, 1999, 2000,  2001, 2002","","Wildlife",12.718879699707,-81.97472,"18","Jaime Garzon-Ferreira, jgarzon@invemar.org.co","COL_ATL"
"27",94001332,"","","Colombia (Pacific)","Sistema Nacionalde Monitoreo de Arrecifes Coralinos en  Colombia","SIMAC","1998, 1999, 2002","","Azufrada - Gorgona",2.95000004768372,-78.16666,"12","Jaime Garzon-Ferreira, jgarzon@invemar.org.co","COL_PAC"
"28",94002391,"","","Colombia (Pacific)","Sistema Nacionalde Monitoreo de Arrecifes Coralinos en  Colombia","SIMAC","2002","","Playa Blanca",2.94040989875793,-78.19308,"12","Jaime Garzon-Ferreira, jgarzon@invemar.org.co","COL_PAC"
"29",94001331,"","","Colombia (Pacific)","Sistema Nacionalde Monitoreo de Arrecifes Coralinos en  Colombia","SIMAC","2002","","Utría -La Chola",6.01143312454224,-77.3467,"12","Jaime Garzon-Ferreira, jgarzon@invemar.org.co","COL_PAC"
"30",10002102,"","","Costa (Atlantic)","Atlantic and Gulf Rapid Reef Assessment","AGRRA","","","Cahuita Eduardo Garden ",9.73738861083984,-82.8059166666667,"","Robert Ginsburg, rginsburg@rsmas.miami.edu","CRI_ATL"
"31",10002104,"","","Costa (Atlantic)","Atlantic and Gulf Rapid Reef Assessment","AGRRA","","","Cahuita Meager Shoal - Puerto Vargas",9.72719478607178,-82.8106944444444,"","Robert Ginsburg, rginsburg@rsmas.miami.edu","CRI_ATL"
"32",10002103,"","","Costa (Atlantic)","Atlantic and Gulf Rapid Reef Assessment","AGRRA","","","Chance Mouth, Cahuita, Limón, Costa Rica",9.74763870239258,-82.8081388888889,"","Robert Ginsburg, rginsburg@rsmas.miami.edu","CRI_ATL"
"33",8004482,"","","Costa (Atlantic)","Caribbean Coastal Marine Productivity Program","CARICOMP","1999, 2000","","Cahuita and Laguna Gandoca",9.7480001449585,-82.81,"","Dulcie Linton, dmlinton@uwimona.edu.jm","CRI_ATL"
"34",9002169,"","","France","Reef Check","RC","2008","55.13.30.26E.21.2.44.03S","Bleu Marine",-21.0455555555556,55.2250833333333,"","Reef Check Foundation, rcdata@reefcheck.org","FRA"
"35",9002091,"","","France","Reef Check","RC","2005,2006","45.02.33E.12.41.16S","Boa Sadia Reef",-12.686,45.0388333333333,"","Reef Check Foundation, rcdata@reefcheck.org","FRA"
"36",9002170,"","","France","Reef Check","RC","2007","55.14.17.37E.21.1.5.64S","Cap la Houssaye",-21.0182222222222,55.2381666666667,"","Reef Check Foundation, rcdata@reefcheck.org","FRA"
"37",9002171,"","","France","Reef Check","RC","2008","55.14.38.8E.21.0.20.6S","Cap la Houssaye",-21.0057222222222,55.2441111111111,"","Reef Check Foundation, rcdata@reefcheck.org","FRA"
"38",9002174,"","","France","Reef Check","RC","2008","55.20.4.5E.21.15.33.2S","Etang sale Sud",-21.2592222222222,55.3345833333333,"","Reef Check Foundation, rcdata@reefcheck.org","FRA"
"39",9002034,"","","France","Reef Check","RC","2002","40.20.438E.22.20.23S","Europa-meteo",-22.3371666666667,40.3406388888889,"","Reef Check Foundation, rcdata@reefcheck.org","FRA"
"40",9002165,"","","France","Reef Check","RC","2008","55.12.57.7E.21.2.23S","Grand Fond",-21.0397222222222,55.2160277777778,"","Reef Check Foundation, rcdata@reefcheck.org","FRA"
"41",9002279,"","","France","Reef Check","RC","2008","63.0.36.4W.18.4.16.5N","Le Gallion Bowl",18.07125,-63.0101111111111,"","Reef Check Foundation, rcdata@reefcheck.org","FRA"
"42",9002092,"","","France","Reef Check","RC","2004","45.09.95E.12.42.60S","Longoni",-12.71,45.1658333333333,"","Reef Check Foundation, rcdata@reefcheck.org","FRA"
"43",9002093,"","","France","Reef Check","RC","2003,2005,2007","45.10.0E.12.34.0S","Longoni Reef",-12.5666666666667,45.1666666666667,"","Reef Check Foundation, rcdata@reefcheck.org","FRA"
"44",9002167,"","","France","Reef Check","RC","2008","55.13.10.5E.21.4.22.7S","Novotel",-21.0729722222222,55.2195833333333,"","Reef Check Foundation, rcdata@reefcheck.org","FRA"
"45",9002095,"","","France","Reef Check","RC","2004,2005,2007","45.16.271E.12.51.855S","Passe en S- Bouee 2",-12.86425,45.2711944444444,"","Reef Check Foundation, rcdata@reefcheck.org","FRA"
"46",9002094,"","","France","Reef Check","RC","2003,2004,2006,2007","45.16.11E.12.52.11S","Passe en S, bouee 11",-12.8697222222222,45.2697222222222,"","Reef Check Foundation, rcdata@reefcheck.org","FRA"
"47",9002172,"","","France","Reef Check","RC","2003,2004,2005,2006,2007,2008","55.17.05.1E.21.09.50.6S","Spot de Saint-Leu",-21.1640555555556,55.28475,"","Reef Check Foundation, rcdata@reefcheck.org","FRA"
"48",9002168,"","","France","Reef Check","RC","2003,2004,2005,2006,2007,2008","55.13.17.8E.21.13.17.8S","Spot del'Hermitage",-21.2216111111111,55.2216111111111,"","Reef Check Foundation, rcdata@reefcheck.org","FRA"
"49",9002173,"","","France","Reef Check","RC","2003,2004,2005,2006,2007,2008","55.19.39.6E.21.15.51.8S","Spot Etang Sale",-21.2643888888889,55.3276666666667,"","Reef Check Foundation, rcdata@reefcheck.org","FRA"
"50",9002166,"","","France","Reef Check","RC","2008","55.13.0.1E.21.2.40.01S","Spot Perroquet",-21.0444444444444,55.2166944444444,"","Reef Check Foundation, rcdata@reefcheck.org","FRA"
"51",8000968,"","","Grand Cayman","Caribbean Coastal Marine Productivity Program","CARICOMP","1995, 1997, 2000","","Grand Cayman 19N083W0001",19.3166694641113,-81.23333,"","Dulcie Linton, dmlinton@uwimona.edu.jm","CYM_GRA"
"52",25002383,"","","Gulf of Mannar","Status Survey of Coral Reefs - India","SSCR-IND","","","Anaiput thivu",9.14999961853027,78.702,"","Dr. K. Venkataraman, dugong@md2.vsnl.net.id, venkyszi@hotmail.com","IND_MAN"
"53",25002380,"","","Gulf of Mannar","Status Survey of Coral Reefs - India","SSCR-IND","","","Appa thivu",9.14500045776367,78.83,"","Dr. K. Venkataraman, dugong@md2.vsnl.net.id, venkyszi@hotmail.com","IND_MAN"
"54",25002388,"","","Gulf of Mannar","Status Survey of Coral Reefs - India","SSCR-IND","","","Karaichalli thivu",8.94999980926514,78.257,"","Dr. K. Venkataraman, dugong@md2.vsnl.net.id, venkyszi@hotmail.com","IND_MAN"
"55",25002389,"","","Gulf of Mannar","Status Survey of Coral Reefs - India","SSCR-IND","","","Kasuwar island",8.88000011444092,78.204,"","Dr. K. Venkataraman, dugong@md2.vsnl.net.id, venkyszi@hotmail.com","IND_MAN"
"56",25002371,"","","Gulf of Mannar","Status Survey of Coral Reefs - India","SSCR-IND","","","Krusadai Island",9.24199962615967,79.223,"","Dr. K. Venkataraman, dugong@md2.vsnl.net.id, venkyszi@hotmail.com","IND_MAN"
"57",25002375,"","","Gulf of Mannar","Status Survey of Coral Reefs - India","SSCR-IND","","","Manoli thivu",9.29599952697754,79.097,"","Dr. K. Venkataraman, dugong@md2.vsnl.net.id, venkyszi@hotmail.com","IND_MAN"
"58",25002374,"","","Gulf of Mannar","Status Survey of Coral Reefs - India","SSCR-IND","","","Manoliputti thivu",9.20199966430664,79.128,"","Dr. K. Venkataraman, dugong@md2.vsnl.net.id, venkyszi@hotmail.com","IND_MAN"
"59",25002377,"","","Gulf of Mannar","Status Survey of Coral Reefs - India","SSCR-IND","","","Mullai thivu",9.17899990081787,78.963,"","Dr. K. Venkataraman, dugong@md2.vsnl.net.id, venkyszi@hotmail.com","IND_MAN"
"60",25002376,"","","Gulf of Mannar","Status Survey of Coral Reefs - India","SSCR-IND","","","Muyal thivu",9.19099998474121,79.077,"","Dr. K. Venkataraman, dugong@md2.vsnl.net.id, venkyszi@hotmail.com","IND_MAN"
"61",25002384,"","","Gulf of Mannar","Status Survey of Coral Reefs - India","SSCR-IND","","","Nallathanni thivu",9.09799957275391,78.593,"","Dr. K. Venkataraman, dugong@md2.vsnl.net.id, venkyszi@hotmail.com","IND_MAN"
"62",25002373,"","","Gulf of Mannar","Status Survey of Coral Reefs - India","SSCR-IND","","","Poonarichan Thivu",9.22900009155273,79.294,"","Dr. K. Venkataraman, dugong@md2.vsnl.net.id, venkyszi@hotmail.com","IND_MAN"
"63",25002381,"","","Gulf of Mannar","Status Survey of Coral Reefs - India","SSCR-IND","","","Poovarasanpatti thivu",9.15900039672852,78.752,"","Dr. K. Venkataraman, dugong@md2.vsnl.net.id, venkyszi@hotmail.com","IND_MAN"
"64",25002372,"","","Gulf of Mannar","Status Survey of Coral Reefs - India","SSCR-IND","","","Pullvasal thivu",9.23900032043457,79.202,"","Dr. K. Venkataraman, dugong@md2.vsnl.net.id, venkyszi@hotmail.com","IND_MAN"
"65",25002385,"","","Gulf of Mannar","Status Survey of Coral Reefs - India","SSCR-IND","","","Puzhuvunnichalli thivu",9.09200000762939,78.541,"","Dr. K. Venkataraman, dugong@md2.vsnl.net.id, venkyszi@hotmail.com","IND_MAN"
"66",25002370,"","","Gulf of Mannar","Status Survey of Coral Reefs - India","SSCR-IND","","","Shingle Island",9.23299980163574,79.236,"","Dr. K. Venkataraman, dugong@md2.vsnl.net.id, venkyszi@hotmail.com","IND_MAN"
"67",25002379,"","","Gulf of Mannar","Status Survey of Coral Reefs - India","SSCR-IND","","","Thaiaiyari thivu",9.16899967193604,78.916,"","Dr. K. Venkataraman, dugong@md2.vsnl.net.id, venkyszi@hotmail.com","IND_MAN"
"68",25002386,"","","Gulf of Mannar","Status Survey of Coral Reefs - India","SSCR-IND","","","Upputhanni thivu",9.07999992370605,78.5,"","Dr. K. Venkataraman, dugong@md2.vsnl.net.id, venkyszi@hotmail.com","IND_MAN"
"69",25002382,"","","Gulf of Mannar","Status Survey of Coral Reefs - India","SSCR-IND","","","Vallimunai thivu",9.1540002822876,78.73,"","Dr. K. Venkataraman, dugong@md2.vsnl.net.id, venkyszi@hotmail.com","IND_MAN"
"70",25002390,"","","Gulf of Mannar","Status Survey of Coral Reefs - India","SSCR-IND","","","Van thivu",8.82999992370605,78.2166,"","Dr. K. Venkataraman, dugong@md2.vsnl.net.id, venkyszi@hotmail.com","IND_MAN"
"71",25002378,"","","Gulf of Mannar","Status Survey of Coral Reefs - India","SSCR-IND","","","Velai Thivu",9.17099952697754,78.945,"","Dr. K. Venkataraman, dugong@md2.vsnl.net.id, venkyszi@hotmail.com","IND_MAN"
"72",25002387,"","","Gulf of Mannar","Status Survey of Coral Reefs - India","SSCR-IND","","","Velanguvhalli thivu",8.91600036621094,78.25,"","Dr. K. Venkataraman, dugong@md2.vsnl.net.id, venkyszi@hotmail.com","IND_MAN"
"73",97001751,"","","Mexico (Pacific)","Programa de Monitoreo de Arrecifes del Pacífico Mejicano","PMAPM","1995, 1996, 1997, 1998, 1999, 2000, 2001","","Caletitas",20.5577697753906,-105.474166,"25","","MEX_PAC"
"74",97001752,"","","Mexico (Pacific)","Programa de Monitoreo de Arrecifes del Pacífico Mejicano","PMAPM","1995, 1996, 1997, 1998, 1999, 2000, 2001, 2003","","Careyeros",20.8349990844727,-105.53,"14","","MEX_PAC"
"75",97001753,"","","Mexico (Pacific)","Programa de Monitoreo de Arrecifes del Pacífico Mejicano","PMAPM","1998, 1999, 2000, 2001","","Chamela",19.6205558776855,-105.2011,"12","","MEX_PAC"
"76",97001765,"","","Mexico (Pacific)","Programa de Monitoreo de Arrecifes del Pacífico Mejicano","PMAPM","1995, 1996, 1997, 1998, 1999, 2000, 2001, 2003","","Chimo",20.5166606903076,-105.75444,"26","","MEX_PAC"
"77",97001754,"","","Mexico (Pacific)","Programa de Monitoreo de Arrecifes del Pacífico Mejicano","PMAPM"," 1998, 1999, 2000, 2001","","Chimo-Las Iglesias",20.5166606903076,-105.75277,"21","","MEX_PAC"
"78",97001755,"","","Mexico (Pacific)","Programa de Monitoreo de Arrecifes del Pacífico Mejicano","PMAPM","1998, 1999, 2000, 2001, 2003","","Guayabitos",21.1941661834717,-105.309166,"14","","MEX_PAC"
"79",97001756,"","","Mexico (Pacific)","Programa de Monitoreo de Arrecifes del Pacífico Mejicano","PMAPM","2002, 2003","","Isla Isabel ",21.9322204589844,-105.894166,"20","","MEX_PAC"
"80",97001757,"","","Mexico (Pacific)","Programa de Monitoreo de Arrecifes del Pacífico Mejicano","PMAPM","1995, 1996, 1997, 1998, 1999, 2000, 2001","","Isla Larga",20.8222007751465,-105.6,"25","","MEX_PAC"
"81",97001758,"","","Mexico (Pacific)","Programa de Monitoreo de Arrecifes del Pacífico Mejicano","PMAPM","1995, 1996, 1997, 1998, 1999, 2000, 2001, 2003","","Isla Redonda ",20.7655506134033,-105.698333,"25","","MEX_PAC"
"82",97001759,"","","Mexico (Pacific)","Programa de Monitoreo de Arrecifes del Pacífico Mejicano","PMAPM","2000, 2001","","La Corbeteña ",20.8716602325439,-105.916111,"27","","MEX_PAC"
"83",97001760,"","","Mexico (Pacific)","Programa de Monitoreo de Arrecifes del Pacífico Mejicano","PMAPM","1995, 1996, 1997, 1998, 1999, 2000, 2001, 2003","","Los Arcos ",20.5911102294922,-105.3363,"25","","MEX_PAC"
"84",97001761,"","","Mexico (Pacific)","Programa de Monitoreo de Arrecifes del Pacífico Mejicano","PMAPM","1996, 1997, 1998, 1999, 2000, 2001","","Paraiso Escondido ",20.7655506134033,-105.698333,"7","","MEX_PAC"
"85",97001762,"","","Mexico (Pacific)","Programa de Monitoreo de Arrecifes del Pacífico Mejicano","PMAPM","1995, 1996, 1997, 1999, 2000, 2001","","Punta Mita",20.8638801574707,-105.55,"8","","MEX_PAC"
"86",97001763,"","","Mexico (Pacific)","Programa de Monitoreo de Arrecifes del Pacífico Mejicano","PMAPM","1998, 1999, 2000, 2001, 2003","","Tenacatita",19.4027767181396,-104.936111,"7","","MEX_PAC"
"87",97001764,"","","Mexico (Pacific)","Programa de Monitoreo de Arrecifes del Pacífico Mejicano","PMAPM","1995, 1996, 1997, 1998, 1999, 2000, 2001","","Yelapa",20.5776996612549,-105.50555,"25","","MEX_PAC"
"88",8000981,"","","Nicaragua (Atlantic)","Caribbean Coastal Marine Productivity Program","CARICOMP","1993, 1995, 1997, 1998","","Great Corn Island ( Isla del Maiz Grande ) 12N083W0008",12.1000003814697,-83.01667,"15","Dulcie Linton, dmlinton@uwimona.edu.jm","NIC_ATL"
"89",122002514,"Africa","Eastern Africa","Indian Ocean Islands (France)","Knowledge and Monitoring of Shallow Marine Ecosystem of the FSIOT (French Scattered Indian Ocean Territories) 2002-2005","KMSME-FSIOT","2002","","Europa",-22.4549999237061,40.397222,"","Jean Pascal Quod, jpquod.arvam@wanadoo.fr","FRA_SCA"
"90",122002510,"Africa","Eastern Africa","Indian Ocean Islands (France)","Knowledge and Monitoring of Shallow Marine Ecosystem of the FSIOT (French Scattered Indian Ocean Territories) 2002-2005","KMSME-FSIOT","2002","","Glorieuses 1",-11.7369403839111,47.365,"","Jean Pascal Quod, jpquod.arvam@wanadoo.fr","FRA_SCA"
"91",122002511,"Africa","Eastern Africa","Indian Ocean Islands (France)","Knowledge and Monitoring of Shallow Marine Ecosystem of the FSIOT (French Scattered Indian Ocean Territories) 2002-2005","KMSME-FSIOT","2002","","Glorieuses 2",-11.8111000061035,47.50611,"","Jean Pascal Quod, jpquod.arvam@wanadoo.fr","FRA_SCA"
"92",122002512,"Africa","Eastern Africa","Indian Ocean Islands (France)","Knowledge and Monitoring of Shallow Marine Ecosystem of the FSIOT (French Scattered Indian Ocean Territories) 2002-2005","KMSME-FSIOT","2002","","Glorieuses 3",-11.744722366333,47.45,"","Jean Pascal Quod, jpquod.arvam@wanadoo.fr","FRA_SCA"
"93",122002513,"Africa","Eastern Africa","Indian Ocean Islands (France)","Knowledge and Monitoring of Shallow Marine Ecosystem of the FSIOT (French Scattered Indian Ocean Territories) 2002-2005","KMSME-FSIOT","2002","","Glorieuses 4",-11.7177696228027,47.3233,"","Jean Pascal Quod, jpquod.arvam@wanadoo.fr","FRA_SCA"
"NA.1",NA,NA,NA,NA,NA,NA,NA,NA,NA,NA,NA,NA,NA,NA
"95",9002033,"Africa","Eastern Africa","Kenya","Reef Check","RC","2004","40.08.42.6E.3.15.32.6S","Lobster Malindi",-3.25905555555556,40.1451666666667,"","Reef Check Foundation, rcdata@reefcheck.org","KEN"
"96",9002048,"Africa","Eastern Africa","Kenya","Reef Check","RC","2003","40.9E.3.15S","Malindi Barracuda Channel",-3.25,40.15,"","Reef Check Foundation, rcdata@reefcheck.org","KEN"
"97",9002046,"Africa","Eastern Africa","Kenya","Reef Check","RC","2003","40.8.30.4E.3.15.32.9S","Malindi Coral Garden",-3.25913888888889,40.1417777777778,"","Reef Check Foundation, rcdata@reefcheck.org","KEN"
"98",9002047,"Africa","Eastern Africa","Kenya","Reef Check","RC","2003","40.8E.3.16S","Malindi North Reef",-3.26666666666667,40.1333333333333,"","Reef Check Foundation, rcdata@reefcheck.org","KEN"
"99",9002049,"Africa","Eastern Africa","Kenya","Reef Check","RC","2003","40.9E.3.16S","Malindi North Reef",-3.26666666666667,40.15,"","Reef Check Foundation, rcdata@reefcheck.org","KEN"
"100",9002045,"Africa","Eastern Africa","Kenya","Reef Check","RC","2004","40.8.2.9E.3.15.46S","Navy Malindi",-3.26277777777778,40.1341388888889,"","Reef Check Foundation, rcdata@reefcheck.org","KEN"
"101",37,"Africa","Eastern Africa","Kenya","Socioeconomic","SOCMON","","23","Diani",-4.2949,39.5875,"","","KEN"
"102",38,"Africa","Eastern Africa","Kenya","Socioeconomic","SOCMON","","24","Msambweni",4.46667,39.4833,"","Mr. Muturi & Assistant Director, Mr. Godfrey Monor","KEN"
"103",19002473,"Africa","Eastern Africa","Kenya","Wildlife Conservation Society-Marine Program","WCS","","","Diani/Moana #1",-4.30999994277954,39.59,"","Tim McClanahan, crcp@africaonline.co.ke","KEN"
"104",19002474,"Africa","Eastern Africa","Kenya","Wildlife Conservation Society-Marine Program","WCS","","","Diani/Moana #2",-4.30999994277954,39.59,"","Tim McClanahan, crcp@africaonline.co.ke","KEN"
"105",19002467,"Africa","Eastern Africa","Kenya","Wildlife Conservation Society-Marine Program","WCS","","","Kanamai #1",-3.92000007629395,39.8,"","Tim McClanahan, crcp@africaonline.co.ke","KEN"
"106",19002468,"Africa","Eastern Africa","Kenya","Wildlife Conservation Society-Marine Program","WCS","","","Kanamai #2",-3.92000007629395,39.8,"","Tim McClanahan, crcp@africaonline.co.ke","KEN"
"107",19002482,"Africa","Eastern Africa","Kenya","Wildlife Conservation Society-Marine Program","WCS","","","Kijamba",-4.23999977111816,39.62,"","Tim McClanahan, crcp@africaonline.co.ke","KEN"
"108",19002475,"Africa","Eastern Africa","Kenya","Wildlife Conservation Society-Marine Program","WCS","","","Kisite #1",-4.71000003814697,39.36,"","Tim McClanahan, crcp@africaonline.co.ke","KEN"
"109",19002476,"Africa","Eastern Africa","Kenya","Wildlife Conservation Society-Marine Program","WCS","","","Kisite #2",-4.71000003814697,39.36,"","Tim McClanahan, crcp@africaonline.co.ke","KEN"
"110",19002477,"Africa","Eastern Africa","Kenya","Wildlife Conservation Society-Marine Program","WCS","","","Kisite #3",-4.71000003814697,39.36,"","Tim McClanahan, crcp@africaonline.co.ke","KEN"
"111",19002478,"Africa","Eastern Africa","Kenya","Wildlife Conservation Society-Marine Program","WCS","","","Kisite #4",-4.71000003814697,39.36,"","Tim McClanahan, crcp@africaonline.co.ke","KEN"
"112",19002483,"Africa","Eastern Africa","Kenya","Wildlife Conservation Society-Marine Program","WCS","","","Makonde",-4.23999977111816,39.62,"","Tim McClanahan, crcp@africaonline.co.ke","KEN"
"113",19002462,"Africa","Eastern Africa","Kenya","Wildlife Conservation Society-Marine Program","WCS","","","Malindi  #1",-3.25999999046326,40.14,"","Tim McClanahan, crcp@africaonline.co.ke","KEN"
"114",19002463,"Africa","Eastern Africa","Kenya","Wildlife Conservation Society-Marine Program","WCS","","","Malindi #2",-3.25999999046326,40.14,"","Tim McClanahan, crcp@africaonline.co.ke","KEN"
"115",19002481,"Africa","Eastern Africa","Kenya","Wildlife Conservation Society-Marine Program","WCS","","","Meca",-4.23999977111816,39.62,"","Tim McClanahan, crcp@africaonline.co.ke","KEN"
"116",19002469,"Africa","Eastern Africa","Kenya","Wildlife Conservation Society-Marine Program","WCS","","","Mombasa #1",-4.09000015258789,39.69,"","Tim McClanahan, crcp@africaonline.co.ke","KEN"
"117",19002470,"Africa","Eastern Africa","Kenya","Wildlife Conservation Society-Marine Program","WCS","","","Mombasa #2",-4.09000015258789,39.69,"","Tim McClanahan, crcp@africaonline.co.ke","KEN"
"118",19002480,"Africa","Eastern Africa","Kenya","Wildlife Conservation Society-Marine Program","WCS","","","Mworombo",-4.23999977111816,39.62,"","Tim McClanahan, crcp@africaonline.co.ke","KEN"
"119",19002479,"Africa","Eastern Africa","Kenya","Wildlife Conservation Society-Marine Program","WCS","","","Nyali",-4.05999994277954,39.72,"","Tim McClanahan, crcp@africaonline.co.ke","KEN"
"120",19002471,"Africa","Eastern Africa","Kenya","Wildlife Conservation Society-Marine Program","WCS","","","Ras Iwatine #1",-4.01999998092651,39.73,"","Tim McClanahan, crcp@africaonline.co.ke","KEN"
"121",19002472,"Africa","Eastern Africa","Kenya","Wildlife Conservation Society-Marine Program","WCS","","","Ras Iwatine #2",-4.01999998092651,39.73,"","Tim McClanahan, crcp@africaonline.co.ke","KEN"
"122",19002465,"Africa","Eastern Africa","Kenya","Wildlife Conservation Society-Marine Program","WCS","","","Vipingo #1",-3.82999992370605,39.8,"","Tim McClanahan, crcp@africaonline.co.ke","KEN"
"123",19002466,"Africa","Eastern Africa","Kenya","Wildlife Conservation Society-Marine Program","WCS","","","Vipingo #2",-3.82999992370605,39.8,"","Tim McClanahan, crcp@africaonline.co.ke","KEN"
"124",19002464,"Africa","Eastern Africa","Kenya","Wildlife Conservation Society-Marine Program","WCS","","","Watamu",-3.39000010490417,40.04,"","Tim McClanahan, crcp@africaonline.co.ke","KEN"
"125",27000008,"Africa","Eastern Africa","Mozambique","Mozambique Coral Reef Monitoring Programme","MCRMP","1999; 2000; 2002","","Anchor's Bay",-23.7769432067871,35.510555,"14","Marcos A M Pereira, marcospereira@gmx.net","MOZ"
"126",27000012,"Africa","Eastern Africa","Mozambique","Mozambique Coral Reef Monitoring Programme","MCRMP","1999; 2000; 2002","","Baixo Danae",-25.97194480896,33.087777,"22","Marcos A M Pereira, marcospereira@gmx.net","MOZ"
"127",27000010,"Africa","Eastern Africa","Mozambique","Mozambique Coral Reef Monitoring Programme","MCRMP","1999; 2000; 2002","","Barreira Vermelha",-26.0663375854492,32.949722,"5","Marcos A M Pereira, marcospereira@gmx.net","MOZ"
"128",27000004,"Africa","Eastern Africa","Mozambique","Mozambique Coral Reef Monitoring Programme","MCRMP","1999; 2000;2002","","Goa Island",-15.2797222137451,40.787222,"6","Marcos A M Pereira, marcospereira@gmx.net","MOZ"
"129",27000014,"Africa","Eastern Africa","Mozambique","Mozambique Coral Reef Monitoring Programme","MCRMP","1999, 2000, 2002","","Kev's Ledge",-26.9536113739014,32.984444,"25","Marcos A M Pereira, marcospereira@gmx.net","MOZ"
"130",27000007,"Africa","Eastern Africa","Mozambique","Mozambique Coral Reef Monitoring Programme","MCRMP","1999; 2000; 2002","","Lighthouse Reef",-21.5777778625488,35.605555,"4","Marcos A M Pereira, marcospereira@gmx.net","MOZ"
"131",27000009,"Africa","Eastern Africa","Mozambique","Mozambique Coral Reef Monitoring Programme","MCRMP","1999; 2000; 2002","","Mike's Cupboard",-23.8122215270996,35.541666,"16","Marcos A M Pereira, marcospereira@gmx.net","MOZ"
"132",27000003,"Africa","Eastern Africa","Mozambique","Mozambique Coral Reef Monitoring Programme","MCRMP","1999; 2000; 2002","","Ponta Mauhane",-13.0994443893433,40.715555,"28","Marcos A M Pereira, marcospereira@gmx.net","MOZ"
"133",27000011,"Africa","Eastern Africa","Mozambique","Mozambique Coral Reef Monitoring Programme","MCRMP","1999; 2000; 2002","","Ponta Torres",-26.2869434356689,32.095277,"3","Marcos A M Pereira, marcospereira@gmx.net","MOZ"
"134",27000002,"Africa","Eastern Africa","Mozambique","Mozambique Coral Reef Monitoring Programme","MCRMP","1999; 2000; 2002","","Sencar Channel",-12.5786113739014,40.69055,"12","Marcos A M Pereira, marcospereira@gmx.net","MOZ"
"135",27000005,"Africa","Eastern Africa","Mozambique","Mozambique Coral Reef Monitoring Programme","MCRMP","1999; 2000; 2002","","Sete Paus Island",-15.1255550384521,50.891388,"6","Marcos A M Pereira, marcospereira@gmx.net","MOZ"
"136",27000013,"Africa","Eastern Africa","Mozambique","Mozambique Coral Reef Monitoring Programme","MCRMP","1999, 2000, 2002","","Texas",-26.8430557250977,32.929166,"18","Marcos A M Pereira, marcospereira@gmx.net","MOZ"
"137",27000006,"Africa","Eastern Africa","Mozambique","Mozambique Coral Reef Monitoring Programme","MCRMP","1999; 2000; 2002","","Two-mile reef",-21.8586101531982,35.543333,"10","Marcos A M Pereira, marcospereira@gmx.net","MOZ"
"138",9001946,"Africa","Eastern Africa","Mozambique","Reef Check","RC","2001","35.29.99E.21.48.02S","2 Mile Reef Bazaruto",-21.8002777777778,35.4997222222222,"","Reef Check Foundation, rcdata@reefcheck.org","MOZ"
"139",9002037,"Africa","Eastern Africa","Mozambique","Reef Check","RC","2002","40.35.74E.11.41.66S","Baixo Vadiazi",-11.6943333333333,40.5956666666667,"","Reef Check Foundation, rcdata@reefcheck.org","MOZ"
"140",9002035,"Africa","Eastern Africa","Mozambique","Reef Check","RC","2002","40.32.52E.11.50.99S","Cabo Pequeve",-11.8498333333333,40.54225,"","Reef Check Foundation, rcdata@reefcheck.org","MOZ"
"141",9001823,"Africa","Eastern Africa","Mozambique","Reef Check","RC","2001","32.53.82E.26.49.79S","Doodles Reef",-26.8298333333333,32.897,"","Reef Check Foundation, rcdata@reefcheck.org","MOZ"
"142",9002038,"Africa","Eastern Africa","Mozambique","Reef Check","RC","2002","40.37.10E.12.16.56S","Ilha Matemo",-12.276,40.6183333333333,"","Reef Check Foundation, rcdata@reefcheck.org","MOZ"
"143",9002039,"Africa","Eastern Africa","Mozambique","Reef Check","RC","2002","40.37.10E.12.16.5S","Ilha Medjumbi",-12.276,40.6183333333333,"","Reef Check Foundation, rcdata@reefcheck.org","MOZ"
"144",9002042,"Africa","Eastern Africa","Mozambique","Reef Check","RC","2002","40.38.14E.12.30.15S","Ilha Quilaluia",-12.5025,40.6356666666667,"","Reef Check Foundation, rcdata@reefcheck.org","MOZ"
"145",9002040,"Africa","Eastern Africa","Mozambique","Reef Check","RC","2002","40.37.38E.12.38.28S","Ilha Quisiva",-12.638,40.623,"","Reef Check Foundation, rcdata@reefcheck.org","MOZ"
"146",9002036,"Africa","Eastern Africa","Mozambique","Reef Check","RC","2002","40.33.82E.11.49.92S","Ilha Quissanga",-11.832,40.5636666666667,"","Reef Check Foundation, rcdata@reefcheck.org","MOZ"
"147",9002043,"Africa","Eastern Africa","Mozambique","Reef Check","RC","2002","40.39.66E.10.53.86S","Ilha Rongui",-10.8976666666667,40.661,"","Reef Check Foundation, rcdata@reefcheck.org","MOZ"
"148",9002041,"Africa","Eastern Africa","Mozambique","Reef Check","RC","2002","40.37.51E.10.45.56S","Ilha Tecomangi",-10.7593333333333,40.6251666666667,"","Reef Check Foundation, rcdata@reefcheck.org","MOZ"
"149",9002044,"Africa","Eastern Africa","Mozambique","Reef Check","RC","2002","40.41.73E.11.02.29S","Ilha Vamizi",-11.0381666666667,40.6955,"","Reef Check Foundation, rcdata@reefcheck.org","MOZ"
"150",9001860,"Africa","Eastern Africa","Mozambique","Reef Check","RC","2000","34.26.62E.28.51.79S","Malongane",-28.8630555555556,34.4436111111111,"","Reef Check Foundation, rcdata@reefcheck.org","MOZ"
"151",9000920,"Africa","Eastern Africa","Mozambique","Reef Check","RC","1997","12S40E1","Quirimba Outer Reef",-12.4354722222222,40.6413055555556,"","Reef Check Foundation, rcdata@reefcheck.org","MOZ"
"NA.2",NA,NA,NA,NA,NA,NA,NA,NA,NA,NA,NA,NA,NA,NA
"153",9001890,"Africa","Eastern Africa","South Africa","Reef Check","RC","2001","34.41.08E.27.31.66S","2 Mile Reef",-27.5276666666667,34.6846666666667,"","Reef Check Foundation, rcdata@reefcheck.org","ZAF"
"154",9001814,"Africa","Eastern Africa","South Africa","Reef Check","RC","2001","32.41.15E.27.31.72S","2 Mile Reef",-27.5286111111111,32.6858333333333,"","Reef Check Foundation, rcdata@reefcheck.org","ZAF"
"155",9001816,"Africa","Eastern Africa","South Africa","Reef Check","RC","2001","32.41.205E.27.31.269S","4 Buoy Reef",-27.5211111111111,32.6866666666667,"","Reef Check Foundation, rcdata@reefcheck.org","ZAF"
"156",9001806,"Africa","Eastern Africa","South Africa","Reef Check","RC","2000","30.49.63E.30.15.73S","Alliwal Shoal",-30.2622222222222,30.8272222222222,"","Reef Check Foundation, rcdata@reefcheck.org","ZAF"
"157",9001815,"Africa","Eastern Africa","South Africa","Reef Check","RC","2005","32.41.17E.27.31.14S","Central Two-Mile Reef",-27.5205555555556,32.6880555555556,"","Reef Check Foundation, rcdata@reefcheck.org","ZAF"
"158",9001818,"Africa","Eastern Africa","South Africa","Reef Check","RC","2005","32.41.9E.27.31.12S","Inner Central Two-Mile Reef",-27.52,32.6858333333333,"","Reef Check Foundation, rcdata@reefcheck.org","ZAF"
"159",9001808,"Africa","Eastern Africa","South Africa","Reef Check","RC","2002","31.3.241E.29.51.914S","Limestone Reef",-29.8652222222222,31.0540277777778,"","Reef Check Foundation, rcdata@reefcheck.org","ZAF"
"160",9001817,"Africa","Eastern Africa","South Africa","Reef Check","RC","2005","32.41.23E.27.31.11S","Northern outer Two-Mile Reef",-27.5197222222222,32.6897222222222,"","Reef Check Foundation, rcdata@reefcheck.org","ZAF"
"161",9001807,"Africa","Eastern Africa","South Africa","Reef Check","RC","2001","30.49.66E.30.15.75S","Raggie Cave",-30.2625,30.8277777777778,"","Reef Check Foundation, rcdata@reefcheck.org","ZAF"
"162",9000199,"Africa","Eastern Africa","Tanzania","Reef Check","RC","1998","10S40E3","Chumba Cha Chumbo",-10.3233055555556,40.3622777777778,"","Reef Check Foundation, rcdata@reefcheck.org","TZA"
"163",9002006,"Africa","Eastern Africa","Tanzania","Reef Check","RC","2004","39.10.465E.06.16.583S","Chumbe Island Coral Park",-6.27638888888889,39.1744166666667,"","Reef Check Foundation, rcdata@reefcheck.org","TZA"
"164",9002001,"Africa","Eastern Africa","Tanzania","Reef Check","RC","2003,2004,2005,2006,2007,2008","39.02.244E.05.32.433S","Fungu Zinga Reef North",-5.54055555555556,39.0373888888889,"","Reef Check Foundation, rcdata@reefcheck.org","TZA"
"165",9002009,"Africa","Eastern Africa","Tanzania","Reef Check","RC","2005,2006,2007,2008","39.22.244E.5.32.433S","Fungu Zinga Reef South",-5.54055555555556,39.0373888888889,"","Reef Check Foundation, rcdata@reefcheck.org","TZA"
"166",9002002,"Africa","Eastern Africa","Tanzania","Reef Check","RC","2003,2004,2005,2006,2007,2008","39.03.59E.05.29.50S","Maziwe Reef North",-5.49722222222222,39.0663888888889,"","Reef Check Foundation, rcdata@reefcheck.org","TZA"
"167",9002010,"Africa","Eastern Africa","Tanzania","Reef Check","RC","2003,2005,2006,2007,2008","39.3.59E.5.29.50S","Maziwe Reef South",-5.49722222222222,39.0663888888889,"","Reef Check Foundation, rcdata@reefcheck.org","TZA"
"168",9002007,"Africa","Eastern Africa","Tanzania","Reef Check","RC","2004","39.12.59.9E.6.45.49.2S","Mwan wa Mwana, near Tumbatu Island",-6.76366666666667,39.2166388888889,"","Reef Check Foundation, rcdata@reefcheck.org","TZA"
"169",9000197,"Africa","Eastern Africa","Tanzania","Reef Check","RC","1997","10S40E1","Ras Msimbati",-10.3261111111111,40.3605555555556,"","Reef Check Foundation, rcdata@reefcheck.org","TZA"
"170",9000200,"Africa","Eastern Africa","Tanzania","Reef Check","RC","1998","10S40E4","Ravula",-10.3050833333333,40.3921944444444,"","Reef Check Foundation, rcdata@reefcheck.org","TZA"
"171",9000198,"Africa","Eastern Africa","Tanzania","Reef Check","RC","1997","10S40E2","Ruvula",-10.3102777777778,40.3919444444444,"","Reef Check Foundation, rcdata@reefcheck.org","TZA"
"172",9002008,"Africa","Eastern Africa","Tanzania","Reef Check","RC","1999","39.17.338E.6.42.726S","The Gap",-6.71211111111111,39.2889722222222,"","Reef Check Foundation, rcdata@reefcheck.org","TZA"
"173",9002378,"Africa","Eastern Africa","Tanzania","Reef Check","RC","1998","6S39E1","The Gap",-6.71333333333333,39.2883333333333,"","Reef Check Foundation, rcdata@reefcheck.org","TZA"
"174",40,"Africa","Eastern Africa","Tanzania","Socioeconomic","SOCMON","","26","Mtwara",10.2,40.2,"","Milali Mwachuma","TZA"
"175",39,"Africa","Eastern Africa","Tanzania","Socioeconomic","SOCMON","","25","Tanga",5.25,39.25,"","Mr. Lawrence Kuziwa","TZA"
"176",56000067,"Africa","Eastern Africa","Tanzania","Tanzania Coral Reef Monitoring Program","TCRMP","1999, 2002","","Bawe",-6.14188003540039,39.13362,"","Christopher Muhando, muhando@zims.udsm.ac.tz","TZA"
"177",56000066,"Africa","Eastern Africa","Tanzania","Tanzania Coral Reef Monitoring Program","TCRMP","1997, 1999, 2002","","Changu",-6.11397981643677,39.16741,"","Christopher Muhando, muhando@zims.udsm.ac.tz","TZA"
"178",56000065,"Africa","Eastern Africa","Tanzania","Tanzania Coral Reef Monitoring Program","TCRMP","1997, 1999, 2002","","Chapwani",-6.12149000167847,39.1916,"","Christopher Muhando, muhando@zims.udsm.ac.tz","TZA"
"179",56000068,"Africa","Eastern Africa","Tanzania","Tanzania Coral Reef Monitoring Program","TCRMP","1997, 1999, 2002","","Chumbe",-6.2747597694397,39.17362,"","Christopher Muhando, muhando@zims.udsm.ac.tz","TZA"
"180",56000069,"Africa","Eastern Africa","Tanzania","Tanzania Coral Reef Monitoring Program","TCRMP","1997, 1999, 2002","","Kwale",-6.38283014297485,39.28327,"","Christopher Muhando, muhando@zims.udsm.ac.tz","TZA"
"181",56000070,"Africa","Eastern Africa","Tanzania","Tanzania Coral Reef Monitoring Program","TCRMP","1994, 1999, 2002","","Misali",-5.23366022109985,39.5959,"","Christopher Muhando, muhando@zims.udsm.ac.tz","TZA"
"182",56000073,"Africa","Eastern Africa","Tanzania","Tanzania Coral Reef Monitoring Program","TCRMP","1999, 2001","","Msumbiji",-7.95954990386963,39.79338,"","Christopher Muhando, muhando@zims.udsm.ac.tz","TZA"
"183",56000071,"Africa","Eastern Africa","Tanzania","Tanzania Coral Reef Monitoring Program","TCRMP","1999, 2001","","Tutia",-8.11534023284912,39.6485,"","Christopher Muhando, muhando@zims.udsm.ac.tz","TZA"
"184",56000072,"Africa","Eastern Africa","Tanzania","Tanzania Coral Reef Monitoring Program","TCRMP","1999, 2001","","Utumbi",-7.94333982467651,39.78725,"","Christopher Muhando, muhando@zims.udsm.ac.tz","TZA"
"185",51001101,"Africa","Southwest Indian Ocean","Comoros","Commission de l'Ocean Indien","COI","1999, 2002","","Candzoni",-12.3900003433228,43.69,"","Jean Pascal Quod, jpquod.arvam@wanadoo.fr","COM"
"186",51001105,"Africa","Southwest Indian Ocean","Comoros","Commission de l'Ocean Indien","COI","","","Fomboni",-12.2639999389648,43.734,"","Jean Pascal Quod, jpquod.arvam@wanadoo.fr","COM"
"187",51001099,"Africa","Southwest Indian Ocean","Comoros","Commission de l'Ocean Indien","COI","1998, 1999, 2002","","Istamia",-12.3629999160767,43.877,"","Jean Pascal Quod, jpquod.arvam@wanadoo.fr","COM"
"188",51001107,"Africa","Southwest Indian Ocean","Comoros","Commission de l'Ocean Indien","COI","1998, 1999, 2002","","Itsandra",-11.6719999313354,43.246,"","Jean Pascal Quod, jpquod.arvam@wanadoo.fr","COM"
"189",51001100,"Africa","Southwest Indian Ocean","Comoros","Commission de l'Ocean Indien","COI","1998, 1999, 2002","","Mea",-12.4099998474121,43.66,"","Jean Pascal Quod, jpquod.arvam@wanadoo.fr","COM"
"190",51001106,"Africa","Southwest Indian Ocean","Comoros","Commission de l'Ocean Indien","COI","1998, 1999, 2002","","Mitsamiouli",-11.3649997711182,43.306,"","Jean Pascal Quod, jpquod.arvam@wanadoo.fr","COM"
"191",51001108,"Africa","Southwest Indian Ocean","Comoros","Commission de l'Ocean Indien","COI","1998, 1999, 2002","","Moroni/Comotel",-11.7200002670288,43.221,"","Jean Pascal Quod, jpquod.arvam@wanadoo.fr","COM"
"192",51001104,"Africa","Southwest Indian Ocean","Comoros","Commission de l'Ocean Indien","COI","","","Ouenefou",-12.3800001144409,43.73,"","Jean Pascal Quod, jpquod.arvam@wanadoo.fr","COM"
"193",51001102,"Africa","Southwest Indian Ocean","Comoros","Commission de l'Ocean Indien","COI","2002","","Sambia",-12.378999710083,43.802,"","Jean Pascal Quod, jpquod.arvam@wanadoo.fr","COM"
"194",51001103,"Africa","Southwest Indian Ocean","Comoros","Commission de l'Ocean Indien","COI","2002","","Walla",-12.3299999237061,43.647,"","Jean Pascal Quod, jpquod.arvam@wanadoo.fr","COM"
"195",51001118,"Africa","Southwest Indian Ocean","Madagascar","Commission de l'Ocean Indien","COI","","","Antanambe",-16.4200000762939,49.86,"","Jean Pascal Quod, jpquod.arvam@wanadoo.fr","MDG"
"196",51001113,"Africa","Southwest Indian Ocean","Madagascar","Commission de l'Ocean Indien","COI","2002","","Antrema",-15.6599998474121,46.16,"","Jean Pascal Quod, jpquod.arvam@wanadoo.fr","MDG"
"197",51001114,"Africa","Southwest Indian Ocean","Madagascar","Commission de l'Ocean Indien","COI","2002","","Belo-sur-Mer",-20.6959991455078,43.883,"","Jean Pascal Quod, jpquod.arvam@wanadoo.fr","MDG"
"198",51001110,"Africa","Southwest Indian Ocean","Madagascar","Commission de l'Ocean Indien","COI","1998, 1999, 2002","","Dzamandjar",-13.3649997711182,48.173,"","Jean Pascal Quod, jpquod.arvam@wanadoo.fr","MDG"
"199",51001116,"Africa","Southwest Indian Ocean","Madagascar","Commission de l'Ocean Indien","COI","1999, 2001","","Foulpointe",-17.681999206543,49.534,"","Jean Pascal Quod, jpquod.arvam@wanadoo.fr","MDG"
"200",51001111,"Africa","Southwest Indian Ocean","Madagascar","Commission de l'Ocean Indien","COI","2000, 2002","","Ifaty",-23.0499992370605,43.51565,"","Jean Pascal Quod, jpquod.arvam@wanadoo.fr","MDG"
"201",51001115,"Africa","Southwest Indian Ocean","Madagascar","Commission de l'Ocean Indien","COI","2002","","Lokaro",-25.0400009155273,47.015,"","Jean Pascal Quod, jpquod.arvam@wanadoo.fr","MDG"
"202",51001119,"Africa","Southwest Indian Ocean","Madagascar","Commission de l'Ocean Indien","COI","","","Masoala",-16.0020008087158,50.154,"","Jean Pascal Quod, jpquod.arvam@wanadoo.fr","MDG"
"203",51001117,"Africa","Southwest Indian Ocean","Madagascar","Commission de l'Ocean Indien","COI","","","Nosy-Antafana",-16.3199996948242,49.86,"","Jean Pascal Quod, jpquod.arvam@wanadoo.fr","MDG"
"204",51001109,"Africa","Southwest Indian Ocean","Madagascar","Commission de l'Ocean Indien","COI","1999, 2002","","Tanikely",-13.4849996566772,48.232,"","Jean Pascal Quod, jpquod.arvam@wanadoo.fr","MDG"
"205",51001112,"Africa","Southwest Indian Ocean","Madagascar","Commission de l'Ocean Indien","COI","2000, 2002","","Toliara",-22.6299991607666,43.23,"","Jean Pascal Quod, jpquod.arvam@wanadoo.fr","MDG"
"206",9002090,"Africa","Southwest Indian Ocean","Madagascar","Reef Check","RC","2001","43.58.135E.16.19.746S","Chesterfield Island",-16.3291666666667,43.9688888888889,"","Reef Check Foundation, rcdata@reefcheck.org","MDG"
"207",9002077,"Africa","Southwest Indian Ocean","Madagascar","Reef Check","RC","2003","43.12.544E.21.57.330S","East Nosy Andrahombava",-21.9555,43.2090555555556,"","Reef Check Foundation, rcdata@reefcheck.org","MDG"
"208",9002075,"Africa","Southwest Indian Ocean","Madagascar","Reef Check","RC","2003","43.11.939E.22.03.689S","East Nosy Fasy",-22.0614722222222,43.1989722222222,"","Reef Check Foundation, rcdata@reefcheck.org","MDG"
"209",9002072,"Africa","Southwest Indian Ocean","Madagascar","Reef Check","RC","2003","43.11.777E.22.05.430S","East Nosy Hao",-22.0905,43.1962777777778,"","Reef Check Foundation, rcdata@reefcheck.org","MDG"
"210",9002078,"Africa","Southwest Indian Ocean","Madagascar","Reef Check","RC","2003","43.12.544E.22.57.33S","East Nosy Masai",-22.9555,43.2090555555556,"","Reef Check Foundation, rcdata@reefcheck.org","MDG"
"211",9002098,"Africa","Southwest Indian Ocean","Madagascar","Reef Check","RC","2004","45.49.25E.13.19.00S","Fred's Reef",-13.3166666666667,45.8208333333333,"","Reef Check Foundation, rcdata@reefcheck.org","MDG"
"212",9002086,"Africa","Southwest Indian Ocean","Madagascar","Reef Check","RC","2001","43.34.1E.23.09.1S","Ifaty",-23.1516666666667,43.5683333333333,"","Reef Check Foundation, rcdata@reefcheck.org","MDG"
"213",9002101,"Africa","Southwest Indian Ocean","Madagascar","Reef Check","RC","2007","48.9.14.98E.13.19.1.63S","La Piscine",-13.3171111111111,48.1541666666667,"","Reef Check Foundation, rcdata@reefcheck.org","MDG"
"214",9002073,"Africa","Southwest Indian Ocean","Madagascar","Reef Check","RC","2003","43.11.85E.22.03.536S","North Nosy Fasy",-22.0589444444444,43.1975,"","Reef Check Foundation, rcdata@reefcheck.org","MDG"
"215",9002066,"Africa","Southwest Indian Ocean","Madagascar","Reef Check","RC","2003","43.11.591E.22.04.606S","North Nosy Hao",-22.0767777777778,43.1931944444444,"","Reef Check Foundation, rcdata@reefcheck.org","MDG"
"216",9002063,"Africa","Southwest Indian Ocean","Madagascar","Reef Check","RC","2003","43.11.21E.22.00.106S","North Nosy Masai",-22.0017777777778,43.1868333333333,"","Reef Check Foundation, rcdata@reefcheck.org","MDG"
"217",9002087,"Africa","Southwest Indian Ocean","Madagascar","Reef Check","RC","2001","43.36.228E.23.38.226S","Nosy Ve (Aquarium)",-23.6371111111111,43.6038055555556,"","Reef Check Foundation, rcdata@reefcheck.org","MDG"
"218",9002099,"Africa","Southwest Indian Ocean","Madagascar","Reef Check","RC","2004","45.50.01E.13.19.49S","Olaf's Reef",-13.3248333333333,45.8335,"","Reef Check Foundation, rcdata@reefcheck.org","MDG"
"219",9002103,"Africa","Southwest Indian Ocean","Madagascar","Reef Check","RC","2007","48.9.21.32E.13.19.21.32S","Olaf's Reef",-13.3225833333333,48.1559166666667,"","Reef Check Foundation, rcdata@reefcheck.org","MDG"
"220",9002065,"Africa","Southwest Indian Ocean","Madagascar","Reef Check","RC","2005,2007,2008","43.11.49.7E.22.07.22.3S","Recruitment Complex",-22.1228611111111,43.1971388888889,"","Reef Check Foundation, rcdata@reefcheck.org","MDG"
"221",9002080,"Africa","Southwest Indian Ocean","Madagascar","Reef Check","RC","2006","43.19758E.22.12537S","Recruitment Complex",-22.1253611111111,43.1975833333333,"","Reef Check Foundation, rcdata@reefcheck.org","MDG"
"222",9002097,"Africa","Southwest Indian Ocean","Madagascar","Reef Check","RC","2004","45.41.70E.13.18.61S","Seven Little Sharks",-13.3101666666667,45.695,"","Reef Check Foundation, rcdata@reefcheck.org","MDG"
"223",9002088,"Africa","Southwest Indian Ocean","Madagascar","Reef Check","RC","2001","43.36.903E.23.40.365S","South Anako Reef",-23.6727777777778,43.615,"","Reef Check Foundation, rcdata@reefcheck.org","MDG"
"224",9002069,"Africa","Southwest Indian Ocean","Madagascar","Reef Check","RC","2003","43.11.679E.21.59.088S","South Nosy Andrahombava",-21.9848055555556,43.1946388888889,"","Reef Check Foundation, rcdata@reefcheck.org","MDG"
"225",9002068,"Africa","Southwest Indian Ocean","Madagascar","Reef Check","RC","2003","43.11.621E.22.04.268S","South Nosy Fasy",-22.0711388888889,43.1936944444444,"","Reef Check Foundation, rcdata@reefcheck.org","MDG"
"226",9002071,"Africa","Southwest Indian Ocean","Madagascar","Reef Check","RC","2003","43.11.748E.22.06.204S","South Nosy Hao",-22.1033888888889,43.1958055555556,"","Reef Check Foundation, rcdata@reefcheck.org","MDG"
"227",9002064,"Africa","Southwest Indian Ocean","Madagascar","Reef Check","RC","2003","43.11.36E.22.00.912S","South Nosy Masai 1",-22.0151944444444,43.1893333333333,"","Reef Check Foundation, rcdata@reefcheck.org","MDG"
"228",9002067,"Africa","Southwest Indian Ocean","Madagascar","Reef Check","RC","2003","43.11.621E.22.01.058S","South Nosy Masai 2",-22.0176388888889,43.1936944444444,"","Reef Check Foundation, rcdata@reefcheck.org","MDG"
"229",9002102,"Africa","Southwest Indian Ocean","Madagascar","Reef Check","RC","2007","48.9.20.68E.13.19.37.72S","Tim's Reef",-13.3271388888889,48.15575,"","Reef Check Foundation, rcdata@reefcheck.org","MDG"
"230",9002070,"Africa","Southwest Indian Ocean","Madagascar","Reef Check","RC","2003","43.11.6E.21.07.305S","West Nosy Andrahombava",-21.12175,43.1933333333333,"","Reef Check Foundation, rcdata@reefcheck.org","MDG"
"231",9002062,"Africa","Southwest Indian Ocean","Madagascar","Reef Check","RC","2003","43.11.145E.22.03.665S","West Nosy Fasy",-22.0610833333333,43.18575,"","Reef Check Foundation, rcdata@reefcheck.org","MDG"
"232",9002060,"Africa","Southwest Indian Ocean","Madagascar","Reef Check","RC","2003","43.10.61E.22.5.502S","West Nosy Hao",-22.0916944444444,43.1768333333333,"","Reef Check Foundation, rcdata@reefcheck.org","MDG"
"233",9002061,"Africa","Southwest Indian Ocean","Madagascar","Reef Check","RC","2003","43.10.971E.22.00.546S","West Nosy Masai",-22.0091111111111,43.1828611111111,"","Reef Check Foundation, rcdata@reefcheck.org","MDG"
"234",51001127,"Africa","Southwest Indian Ocean","Mauritius","Commission de l'Ocean Indien","COI","1998, 2000, 2002","","Bambou Virieux",-20.3279991149902,57.801,"","Jean Pascal Quod, jpquod.arvam@wanadoo.fr","MUS"
"235",51001123,"Africa","Southwest Indian Ocean","Mauritius","Commission de l'Ocean Indien","COI","2002","","Grand Bassin",-19.6569995880127,63.4241,"","Jean Pascal Quod, jpquod.arvam@wanadoo.fr","MUS"
"236",51001122,"Africa","Southwest Indian Ocean","Mauritius","Commission de l'Ocean Indien","COI","2002","","Ile aux Fous",-19.6847229003906,63.652,"","Jean Pascal Quod, jpquod.arvam@wanadoo.fr","MUS"
"237",51001121,"Africa","Southwest Indian Ocean","Mauritius","Commission de l'Ocean Indien","COI","2002","","Passe Armad",-19.6716995239258,63.4175,"","Jean Pascal Quod, jpquod.arvam@wanadoo.fr","MUS"
"238",51001124,"Africa","Southwest Indian Ocean","Mauritius","Commission de l'Ocean Indien","COI","2002","","Passe Demie",-19.7047996520996,63.2943,"","Jean Pascal Quod, jpquod.arvam@wanadoo.fr","MUS"
"239",51001120,"Africa","Southwest Indian Ocean","Mauritius","Commission de l'Ocean Indien","COI","2002","","Riviere Banane",-19.6700000762939,63.4704,"","Jean Pascal Quod, jpquod.arvam@wanadoo.fr","MUS"
"240",51001126,"Africa","Southwest Indian Ocean","Mauritius","Commission de l'Ocean Indien","COI","1998, 2000, 2002","","Trou aux Biches",-20.0240001678467,57.535,"","Jean Pascal Quod, jpquod.arvam@wanadoo.fr","MUS"
"241",51001125,"Africa","Southwest Indian Ocean","Mauritius","Commission de l'Ocean Indien","COI","2002","","Trou Blanc",-19.7567005157471,63.474,"","Jean Pascal Quod, jpquod.arvam@wanadoo.fr","MUS"
"242",9002289,"Africa","Southwest Indian Ocean","Mauritius","Reef Check","RC","1999","63.30.20.86E.19.41.48.89S","Aquarium",-19.6969138888889,63.5057944444444,"","Reef Check Foundation, rcdata@reefcheck.org","MUS"
"243",9002282,"Africa","Southwest Indian Ocean","Mauritius","Reef Check","RC","2001","63.24.34.31E.19.40.01.40S","Chaland, Passe Armand (10m)",-19.6670555555556,63.4095305555556,"","Reef Check Foundation, rcdata@reefcheck.org","MUS"
"244",9002281,"Africa","Southwest Indian Ocean","Mauritius","Reef Check","RC","2001","63.24.33.10E.19.40.04.50S","Chaland, Passe Armand (3m)",-19.6679166666667,63.4091944444444,"","Reef Check Foundation, rcdata@reefcheck.org","MUS"
"245",9002178,"Africa","Southwest Indian Ocean","Mauritius","Reef Check","RC","1999,2000","57.34.90E.19.59.15N","Island Reef",-19.9858333333333,57.5816666666667,"","Reef Check Foundation, rcdata@reefcheck.org","MUS"
"246",9002179,"Africa","Southwest Indian Ocean","Mauritius","Reef Check","RC","1999,2000","57.37.10E.19.58.50N","Island Reef, Anse La Raie",-19.975,57.6183333333333,"","Reef Check Foundation, rcdata@reefcheck.org","MUS"
"247",9002283,"Africa","Southwest Indian Ocean","Mauritius","Reef Check","RC","1999,2003","63.24.47E.19.40.06N","Passe Armand",-19.6683333333333,63.4130555555556,"","Reef Check Foundation, rcdata@reefcheck.org","MUS"
"248",9002284,"Africa","Southwest Indian Ocean","Mauritius","Reef Check","RC","2002","63.24.630E.19.40.050S","Passe Armand",-19.6675,63.4105,"","Reef Check Foundation, rcdata@reefcheck.org","MUS"
"249",9002286,"Africa","Southwest Indian Ocean","Mauritius","Reef Check","RC","2003","63.26.235E.19.39.662S","Patte Cappor",-19.6610277777778,63.43725,"","Reef Check Foundation, rcdata@reefcheck.org","MUS"
"250",9002285,"Africa","Southwest Indian Ocean","Mauritius","Reef Check","RC","1999","63.26.12.7E.19.39.46.58N","Patte Cappor",-19.6629388888889,63.4368611111111,"","Reef Check Foundation, rcdata@reefcheck.org","MUS"
"251",9002287,"Africa","Southwest Indian Ocean","Mauritius","Reef Check","RC","1999","63.28.51.83E.19.40.21.2N","Petit Brisane",-19.6725555555556,63.4810555555556,"","Reef Check Foundation, rcdata@reefcheck.org","MUS"
"252",12004502,"Africa","Southwest Indian Ocean","Mayotte","Coral Reef Degradation in the Indian Ocean","CORDIO","1999, 2000","","Geyser",-12.6499996185303,45.14055,"","David Souter, david.souter@cordio.org","MYT"
"253",26000078,"Africa","Southwest Indian Ocean","Mayotte","Observatoire des Recifs Coralliens","ORC","1998, 1999, 2000, 2001, 2002","","Dougmougno (Handrema) (1)",-12.6529998779297,45.099,"3","Jean-Benoit Nicet, daf.spem.mayotte@wanado.fr","MYT"
"254",26000086,"Africa","Southwest Indian Ocean","Mayotte","Observatoire des Recifs Coralliens","ORC","1998, 1999, 2000, 2001, 2002","","Gand recif",-12.621000289917,45.16,"6","Jean-Benoit Nicet, daf.spem.mayotte@wanado.fr","MYT"
"255",26000080,"Africa","Southwest Indian Ocean","Mayotte","Observatoire des Recifs Coralliens","ORC","1998, 1999, 2000, 2001, 2002","","Longoni (3)",-12.7180004119873,45.163,"3","Jean-Benoit Nicet, daf.spem.mayotte@wanado.fr","MYT"
"256",26000085,"Africa","Southwest Indian Ocean","Mayotte","Observatoire des Recifs Coralliens","ORC","1998, 1999, 2000, 2001, 2002","","Passe aux Bateaux",-12.9689998626709,44.976,"6","Jean-Benoit Nicet, daf.spem.mayotte@wanado.fr","MYT"
"257",26000084,"Africa","Southwest Indian Ocean","Mayotte","Observatoire des Recifs Coralliens","ORC","1998, 1999, 2000, 2001, 2002","","Passe en S",-12.6440000534058,45.276,"6","Jean-Benoit Nicet, daf.spem.mayotte@wanado.fr","MYT"
"258",26000082,"Africa","Southwest Indian Ocean","Mayotte","Observatoire des Recifs Coralliens","ORC","1998, 1999, 2000, 2001, 2002","","Prevoyante (5)",-12.6879997253418,45.165,"6","Jean-Benoit Nicet, daf.spem.mayotte@wanado.fr","MYT"
"259",26000079,"Africa","Southwest Indian Ocean","Mayotte","Observatoire des Recifs Coralliens","ORC","1998, 1999, 2000, 2001, 2002","","Saziley (2)",-12.9879999160767,45.163,"3","Jean-Benoit Nicet, daf.spem.mayotte@wanado.fr","MYT"
"260",26000083,"Africa","Southwest Indian Ocean","Mayotte","Observatoire des Recifs Coralliens","ORC","1998, 1999, 2000, 2001, 2002","","Surprise (6)",-12.6440000534058,45.128,"6","Jean-Benoit Nicet, daf.spem.mayotte@wanado.fr","MYT"
"261",26000081,"Africa","Southwest Indian Ocean","Mayotte","Observatoire des Recifs Coralliens","ORC","1998, 1999, 2000, 2001, 2002","","Tanaraki",-12.7639999389648,45.067,"3","Jean-Benoit Nicet, daf.spem.mayotte@wanado.fr","MYT"
"262",51004489,"Africa","Southwest Indian Ocean","Réunion","Commission de l'Ocean Indien","COI","1998, 1999, 2000, 2001, 2002, 2003","","3 Chameaux  - Toboggan (Pente externe)",-21.0812606811523,55.08126,"12","Jean Pascal Quod, jpquod.arvam@wanadoo.fr","REU"
"263",51001899,"Africa","Southwest Indian Ocean","Réunion","Commission de l'Ocean Indien","COI","2000, 2001, 2002, 2003","","Alize Plage  (Platier)",-21.3455791473389,55.47233,"","Jean Pascal Quod, jpquod.arvam@wanadoo.fr","REU"
"264",51004495,"Africa","Southwest Indian Ocean","Réunion","Commission de l'Ocean Indien","COI","2000, 2001, 2002, 2003","","Alizes Plage  (Pente externe)",-21.3485698699951,55.47102,"14","Jean Pascal Quod, jpquod.arvam@wanadoo.fr","REU"
"265",51004493,"Africa","Southwest Indian Ocean","Réunion","Commission de l'Ocean Indien","COI","2000, 2001, 2002, 2003","","Bassin Pirogue  (Pente externe)",-21.2687797546387,55.32828,"11","Jean Pascal Quod, jpquod.arvam@wanadoo.fr","REU"
"266",51001898,"Africa","Southwest Indian Ocean","Réunion","Commission de l'Ocean Indien","COI","2000, 2001, 2002, 2003","","Bassin Pirogue  (Platier)",-21.269510269165,55.33292,"0.8","Jean Pascal Quod, jpquod.arvam@wanadoo.fr","REU"
"267",51004491,"Africa","Southwest Indian Ocean","Réunion","Commission de l'Ocean Indien","COI","1999, 2001, 2002, 2003","","La Corne  (Pente externe)",-21.1640396118164,55.28261,"10","Jean Pascal Quod, jpquod.arvam@wanadoo.fr","REU"
"268",51001896,"Africa","Southwest Indian Ocean","Réunion","Commission de l'Ocean Indien","COI","1999, 2001, 2002, 2003","","La Corne Nord  (Platier)",-21.1657199859619,55.28474,"0.8","Jean Pascal Quod, jpquod.arvam@wanadoo.fr","REU"
"269",51004492,"Africa","Southwest Indian Ocean","Réunion","Commission de l'Ocean Indien","COI","1999, 2001, 2002, 2003","","La Varangue  (Pente externe)",-21.1735496520996,55.28249,"15","Jean Pascal Quod, jpquod.arvam@wanadoo.fr","REU"
"270",51001897,"Africa","Southwest Indian Ocean","Réunion","Commission de l'Ocean Indien","COI","1999, 2001, 2002, 2003","","La Varangue  (Platier)",-21.1733894348145,55.28579,"0.8","Jean Pascal Quod, jpquod.arvam@wanadoo.fr","REU"
"271",51001893,"Africa","Southwest Indian Ocean","Réunion","Commission de l'Ocean Indien","COI","2002","","Oasis 1",-7.26249980926514,52.966944,"","Jean Pascal Quod, jpquod.arvam@wanadoo.fr","REU"
"272",51004490,"Africa","Southwest Indian Ocean","Réunion","Commission de l'Ocean Indien","COI","1998, 1999, 2000, 2001, 2002, 2003","","Planch' Alizes (Pente externe)",-21.0990009307861,55.22969,"15","Jean Pascal Quod, jpquod.arvam@wanadoo.fr","REU"
"273",51001894,"Africa","Southwest Indian Ocean","Réunion","Commission de l'Ocean Indien","COI","1998, 2000, 2001, 2002, 2003","","Planch' Alizes (Platier)",-21.0963497161865,55.23277,"0.8","Jean Pascal Quod, jpquod.arvam@wanadoo.fr","REU"
"274",51004494,"Africa","Southwest Indian Ocean","Réunion","Commission de l'Ocean Indien","COI","2000, 2001, 2002, 2003","","Ravine Blanche  (Pente externe)",-21.3457508087158,55.4592,"14","Jean Pascal Quod, jpquod.arvam@wanadoo.fr","REU"
"275",51001900,"Africa","Southwest Indian Ocean","Réunion","Commission de l'Ocean Indien","COI","2000, 2001, 2002, 2003","","Ravine Blanche  (Platier)",-21.34255027771,55.46116,"0.8","Jean Pascal Quod, jpquod.arvam@wanadoo.fr","REU"
"276",51001895,"Africa","Southwest Indian Ocean","Réunion","Commission de l'Ocean Indien","COI","1998, 2000, 2001, 2002, 2003","","Toboggan  (Platier)",-21.0815391540527,55.22134,"0.8","Jean Pascal Quod, jpquod.arvam@wanadoo.fr","REU"
"277",49000321,"Africa","Southwest Indian Ocean","Seychelles","Aldabra Marine Program","AMP","2002, 2003","","AS1 (Assomption)",-9.78722190856934,46.679722,"","Dr. Ben Stobart, benstobart@aldabra.org, amp@aldabra.org","SYC"
"278",49000322,"Africa","Southwest Indian Ocean","Seychelles","Aldabra Marine Program","AMP","2002","","ASOVE1 (Astove)",-10.151388168335,48.005555,"","Dr. Ben Stobart, benstobart@aldabra.org, amp@aldabra.org","SYC"
"279",49000314,"Africa","Southwest Indian Ocean","Seychelles","Aldabra Marine Program","AMP","1999, 2001, 2002, 2003","","AT 6 (Anse Var)",-9.4763879776001,46.393055,"","Dr. Ben Stobart, benstobart@aldabra.org, amp@aldabra.org","SYC"
"280",49000309,"Africa","Southwest Indian Ocean","Seychelles","Aldabra Marine Program","AMP","1999, 2001, 2002, 2003","","AT1",-9.42555046081543,46.216944,"","Dr. Ben Stobart, benstobart@aldabra.org, amp@aldabra.org","SYC"
"281",49000320,"Africa","Southwest Indian Ocean","Seychelles","Aldabra Marine Program","AMP","2002","","AT12",-9.61166572570801,46.505277,"","Dr. Ben Stobart, benstobart@aldabra.org, amp@aldabra.org","SYC"
"282",49000310,"Africa","Southwest Indian Ocean","Seychelles","Aldabra Marine Program","AMP","1999, 2001, 2002, 2003","","AT2 (Anse Cedres Polymnie)",-9.38000011444092,46.30111,"","Dr. Ben Stobart, benstobart@aldabra.org, amp@aldabra.org","SYC"
"283",49000311,"Africa","Southwest Indian Ocean","Seychelles","Aldabra Marine Program","AMP","1999, 2001, 2002, 2003","","AT3 (Anse Badamier)",-9.59472179412842,46.3925,"","Dr. Ben Stobart, benstobart@aldabra.org, amp@aldabra.org","SYC"
"284",49000312,"Africa","Southwest Indian Ocean","Seychelles","Aldabra Marine Program","AMP","1999, 2001, 2002, 2003","","AT4 (Passe Houreau)",-9.43722152709961,46.63027,"","Dr. Ben Stobart, benstobart@aldabra.org, amp@aldabra.org","SYC"
"285",49000313,"Africa","Southwest Indian Ocean","Seychelles","Aldabra Marine Program","AMP","1999, 2001, 2002, 2003","","AT5 (Anse Cedres, eastern side)",-9.86221981048584,46.685,"","Dr. Ben Stobart, benstobart@aldabra.org, amp@aldabra.org","SYC"
"286",49000315,"Africa","Southwest Indian Ocean","Seychelles","Aldabra Marine Program","AMP","1999, 2001, 2002, 2003","","AT7 (Anse Baddamier IV)",-9.6702766418457,46.2522,"15","Dr. Ben Stobart, benstobart@aldabra.org, amp@aldabra.org","SYC"
"287",49000316,"Africa","Southwest Indian Ocean","Seychelles","Aldabra Marine Program","AMP","2001, 2002","","AT8 (southern shoreline)",-9.678879737854,46.63027,"","Dr. Ben Stobart, benstobart@aldabra.org, amp@aldabra.org","SYC"
"288",49000317,"Africa","Southwest Indian Ocean","Seychelles","Aldabra Marine Program","AMP","2001, 2002, 2003","","AT9 (Grande Passe)",-9.62444019317627,46.37277,"","Dr. Ben Stobart, benstobart@aldabra.org, amp@aldabra.org","SYC"
"289",49000319,"Africa","Southwest Indian Ocean","Seychelles","Aldabra Marine Program","AMP","2001, 2002","","HO2 (Passe Houareau)",-9.40666007995605,46.6455,"","Dr. Ben Stobart, benstobart@aldabra.org, amp@aldabra.org","SYC"
"290",49000318,"Africa","Southwest Indian Ocean","Seychelles","Aldabra Marine Program","AMP","2001, 2002, 2003","","HOI1 (Passe Houareau)",-9.6225004196167,46.60277,"3.5","Dr. Ben Stobart, benstobart@aldabra.org, amp@aldabra.org","SYC"
"291",49000323,"Africa","Southwest Indian Ocean","Seychelles","Aldabra Marine Program","AMP","2002, 2003","","STPID3 St. Pierre D3",-9.45194435119629,50.964722,"","Dr. Ben Stobart, benstobart@aldabra.org, amp@aldabra.org","SYC"
"292",51004487,"Africa","Southwest Indian Ocean","Seychelles","Commission de l'Ocean Indien","COI","2003","","Airport",-4.66534996032715,55.528466667,"","Jean Pascal Quod, jpquod.arvam@wanadoo.fr","SYC"
"293",51001888,"Africa","Southwest Indian Ocean","Seychelles","Commission de l'Ocean Indien","COI","2002, 2003","","Anse Cimetiere",-4.61399984359741,55.50099,"","Jean Pascal Quod, jpquod.arvam@wanadoo.fr","SYC"
"294",51001892,"Africa","Southwest Indian Ocean","Seychelles","Commission de l'Ocean Indien","COI","2002, 2003","","Anse Papaie",-4.31694412231445,55.745277,"","Jean Pascal Quod, jpquod.arvam@wanadoo.fr","SYC"
"295",51004486,"Africa","Southwest Indian Ocean","Seychelles","Commission de l'Ocean Indien","COI","2003","","Cachee Island",-4.65003347396851,55.517566667,"","Jean Pascal Quod, jpquod.arvam@wanadoo.fr","SYC"
"296",51001889,"Africa","Southwest Indian Ocean","Seychelles","Commission de l'Ocean Indien","COI","2002, 2003","","Cerf",-4.63700008392334,55.49362,"","Jean Pascal Quod, jpquod.arvam@wanadoo.fr","SYC"
"297",51001891,"Africa","Southwest Indian Ocean","Seychelles","Commission de l'Ocean Indien","COI","2002, 2003","","Coral Garden",-4.35027694702148,55.918055,"","Jean Pascal Quod, jpquod.arvam@wanadoo.fr","SYC"
"298",51001886,"Africa","Southwest Indian Ocean","Seychelles","Commission de l'Ocean Indien","COI","1997, 1998, 1999, 2000, 2001, 2002, 2003","","Middle Reef",-4.63889980316162,55.3685,"","Jean Pascal Quod, jpquod.arvam@wanadoo.fr","SYC"
"299",51001890,"Africa","Southwest Indian Ocean","Seychelles","Commission de l'Ocean Indien","COI","2002, 2003","","Moyenne",-4.61818981170654,55.50561,"","Jean Pascal Quod, jpquod.arvam@wanadoo.fr","SYC"
"300",51004488,"Africa","Southwest Indian Ocean","Seychelles","Commission de l'Ocean Indien","COI","2002","","North East Point",-4.57849979400635,55.46565,"","Jean Pascal Quod, jpquod.arvam@wanadoo.fr","SYC"
"301",51004484,"Africa","Southwest Indian Ocean","Seychelles","Commission de l'Ocean Indien","COI","2003","","Port Launay",-4.65076684951782,55.397216667,"","Jean Pascal Quod, jpquod.arvam@wanadoo.fr","SYC"
"302",51004485,"Africa","Southwest Indian Ocean","Seychelles","Commission de l'Ocean Indien","COI","2003","","Therese Island",-4.66908311843872,55.40075,"","Jean Pascal Quod, jpquod.arvam@wanadoo.fr","SYC"
"303",9002145,"Africa","Southwest Indian Ocean","Seychelles","Reef Check","RC","1997","4S55E1","Baie Ternay",-4.63861111111111,55.3763888888889,"","Reef Check Foundation, rcdata@reefcheck.org","SYC"
"304",9002146,"Africa","Southwest Indian Ocean","Seychelles","Reef Check","RC","1997","4S55E3","Baie Ternay (Bluff)",-4.63861111111111,55.38,"","Reef Check Foundation, rcdata@reefcheck.org","SYC"
"305",9002147,"Africa","Southwest Indian Ocean","Seychelles","Reef Check","RC","1997","4S55E4","Big Sister Island",-4.28333333333333,55.8638888888889,"","Reef Check Foundation, rcdata@reefcheck.org","SYC"
"306",9002148,"Africa","Southwest Indian Ocean","Seychelles","Reef Check","RC","1997","4S55E5","Corsair Reef",-4.61722222222222,55.4072222222222,"","Reef Check Foundation, rcdata@reefcheck.org","SYC"
"307",9002149,"Africa","Southwest Indian Ocean","Seychelles","Reef Check","RC","1997","4S55E7","Danzil Reef",-4.61805555555556,55.4002777777778,"","Reef Check Foundation, rcdata@reefcheck.org","SYC"
"308",9002155,"Africa","Southwest Indian Ocean","Seychelles","Reef Check","RC","2001","51.08.698E.10.07.349S","Farquar",-10.1225,51.145,"","Reef Check Foundation, rcdata@reefcheck.org","SYC"
"309",9002150,"Africa","Southwest Indian Ocean","Seychelles","Reef Check","RC","1997","4S55E8","Turtle Reef",-4.30805555555556,55.7277777777778,"","Reef Check Foundation, rcdata@reefcheck.org","SYC"
"310",9002280,"Americas","Eastern Caribbean","Anguilla","Reef Check","RC","2002","63.03W.18.14N","Blackgarden",18.2333333333333,-63.05,"","Reef Check Foundation, rcdata@reefcheck.org","AIA"
"311",9002270,"Americas","Eastern Caribbean","Antigua and Barbuda","Reef Check","RC","2004","61.49.89W.17.11.785N","Boons Reef",17.1964166666667,-61.8315,"","Reef Check Foundation, rcdata@reefcheck.org","ATG"
"312",9002261,"Americas","Eastern Caribbean","Antigua and Barbuda","Reef Check","RC","2003","61.39.55W.17.4.3N","Green Island",17.0675,-61.6652777777778,"","Reef Check Foundation, rcdata@reefcheck.org","ATG"
"313",9002269,"Americas","Eastern Caribbean","Antigua and Barbuda","Reef Check","RC","2004","61.49.134W.17.09.552N","Little Bird Reef",17.1591944444444,-61.8188888888889,"","Reef Check Foundation, rcdata@reefcheck.org","ATG"
"314",9002271,"Americas","Eastern Caribbean","Antigua and Barbuda","Reef Check","RC","2003","61.51.8W.17.44.7N","North Shore",17.7352777777778,-61.8522222222222,"","Reef Check Foundation, rcdata@reefcheck.org","ATG"
"315",8000960,"Americas","Eastern Caribbean","Barbados","Caribbean Coastal Marine Productivity Program","CARICOMP","1993, 1994, 1999, 2000","","Bellairs North Reef 13N059W0019",13.192440032959,-59.64044,"","Dulcie Linton, dmlinton@uwimona.edu.jm","BRB"
"316",8000961,"Americas","Eastern Caribbean","Barbados","Caribbean Coastal Marine Productivity Program","CARICOMP","1993, 1994, 1999, 2000","","Bellairs Reef 13N059W0002",13.1916704177856,-59.645,"","Dulcie Linton, dmlinton@uwimona.edu.jm","BRB"
"317",8000962,"Americas","Eastern Caribbean","Barbados","Caribbean Coastal Marine Productivity Program","CARICOMP","1993, 1994, 1999, 2000","","Bellairs South Reef 13N059W0020",13.192440032959,-59.64044,"","Dulcie Linton, dmlinton@uwimona.edu.jm","BRB"
"NA.3",NA,NA,NA,NA,NA,NA,NA,NA,NA,NA,NA,NA,NA,NA
"319",9002188,"Americas","Eastern Caribbean","Barbados","Reef Check","RC","2002","59.38.02W.13.7.51N","Atlantis",13.1251666666667,-59.6336666666667,"","Reef Check Foundation, rcdata@reefcheck.org","BRB"
"320",9002191,"Americas","Eastern Caribbean","Barbados","Reef Check","RC","2002","59.38.26W.13.07.51N","Atlantis",13.1251666666667,-59.6376666666667,"","Reef Check Foundation, rcdata@reefcheck.org","BRB"
"321",9000922,"Americas","Eastern Caribbean","Barbados","Reef Check","RC","2003","13.07.30W.59.38.77N","Atlantis",13.1216666666667,-59.6461666666667,"","Reef Check Foundation, rcdata@reefcheck.org","BRB"
"NA.4",NA,NA,NA,NA,NA,NA,NA,NA,NA,NA,NA,NA,NA,NA
"323",9000947,"Americas","Eastern Caribbean","Barbados","Reef Check","RC","1997","13N59W1","Bats Rock",13.6452777777778,-59.1358333333333,"","Reef Check Foundation, rcdata@reefcheck.org","BRB"
"NA.5",NA,NA,NA,NA,NA,NA,NA,NA,NA,NA,NA,NA,NA,NA
"325",9002182,"Americas","Eastern Caribbean","Barbados","Reef Check","RC","2004,2005","59.33.397W.13.03.759N","Bougenvillea",13.0626388888889,-59.5566111111111,"","Reef Check Foundation, rcdata@reefcheck.org","BRB"
"NA.6",NA,NA,NA,NA,NA,NA,NA,NA,NA,NA,NA,NA,NA,NA
"327",9002185,"Americas","Eastern Caribbean","Barbados","Reef Check","RC","2002,2004,2005","59.36.45.3W.13.5.8.8N","Carlisle Bay",13.0857777777778,-59.6125833333333,"","Reef Check Foundation, rcdata@reefcheck.org","BRB"
"328",9002193,"Americas","Eastern Caribbean","Barbados","Reef Check","RC","2003","59.38.42W.13.15.42N","Carlisle Bay",13.2616666666667,-59.645,"","Reef Check Foundation, rcdata@reefcheck.org","BRB"
"NA.7",NA,NA,NA,NA,NA,NA,NA,NA,NA,NA,NA,NA,NA,NA
"NA.8",NA,NA,NA,NA,NA,NA,NA,NA,NA,NA,NA,NA,NA,NA
"331",9002186,"Americas","Eastern Caribbean","Barbados","Reef Check","RC","2001,2002","59.36.85W.13.04.98N","Carlisle Bay",13.0830555555556,-59.6141666666667,"","Reef Check Foundation, rcdata@reefcheck.org","BRB"
"332",9002183,"Americas","Eastern Caribbean","Barbados","Reef Check","RC","2002","59.36.20.7W.13.5.39.2N","Coconut Court",13.0942222222222,-59.60575,"","Reef Check Foundation, rcdata@reefcheck.org","BRB"
"NA.9",NA,NA,NA,NA,NA,NA,NA,NA,NA,NA,NA,NA,NA,NA
"334",9002184,"Americas","Eastern Caribbean","Barbados","Reef Check","RC","2001,2002,2004,2005","59.36.207W.13.04.392N","Coconut Court Hotel/Asta",13.0733333333333,-59.6033333333333,"","Reef Check Foundation, rcdata@reefcheck.org","BRB"
"335",9002198,"Americas","Eastern Caribbean","Barbados","Reef Check","RC","2002","59W13N","Dottins",13.1843333333333,-59.6586666666667,"","Reef Check Foundation, rcdata@reefcheck.org","BRB"
"336",9002197,"Americas","Eastern Caribbean","Barbados","Reef Check","RC","2002","59W.13N","Dottins South",13,-59,"","Reef Check Foundation, rcdata@reefcheck.org","BRB"
"337",9002195,"Americas","Eastern Caribbean","Barbados","Reef Check","RC","2002","59.38.48W.13.10.78N","Folkestone Marine Park",13.1796666666667,-59.6413333333333,"","Reef Check Foundation, rcdata@reefcheck.org","BRB"
"338",9002189,"Americas","Eastern Caribbean","Barbados","Reef Check","RC","2003","59.38.05W.13.10.40N","Folkestone Marine Park",13.1777777777778,-59.6347222222222,"","Reef Check Foundation, rcdata@reefcheck.org","BRB"
"339",9002190,"Americas","Eastern Caribbean","Barbados","Reef Check","RC","2002","59.38.12W.13.10.72N","Folkestone Marine Park",13.1786666666667,-59.6353333333333,"","Reef Check Foundation, rcdata@reefcheck.org","BRB"
"340",9000003,"Americas","Eastern Caribbean","Barbados","Reef Check","RC","2005","059.38W.13.11N","Folkestone Marine Park",13.1833333333333,-59.6333333333333,"","Reef Check Foundation, rcdata@reefcheck.org","BRB"
"341",9000948,"Americas","Eastern Caribbean","Barbados","Reef Check","RC","1997","13N59W2","Greensleeves",13.2255555555556,-59.6452777777778,"","Reef Check Foundation, rcdata@reefcheck.org","BRB"
"342",9002194,"Americas","Eastern Caribbean","Barbados","Reef Check","RC","2005","59.38.45.2W.13.15.38.1N","Heywoods Beach",13.2605833333333,-59.6458888888889,"","Reef Check Foundation, rcdata@reefcheck.org","BRB"
"343",9002192,"Americas","Eastern Caribbean","Barbados","Reef Check","RC","2003","59.38.26W.13.13.40N","Lower Carlton",13.2277777777778,-59.6405555555556,"","Reef Check Foundation, rcdata@reefcheck.org","BRB"
"NA.10",NA,NA,NA,NA,NA,NA,NA,NA,NA,NA,NA,NA,NA,NA
"NA.11",NA,NA,NA,NA,NA,NA,NA,NA,NA,NA,NA,NA,NA,NA
"346",9002180,"Americas","Eastern Caribbean","Barbados","Reef Check","RC","2001,2002","59.32.462W.13.03.292N","Oistins",13.055,-59.5411111111111,"","Reef Check Foundation, rcdata@reefcheck.org","BRB"
"347",9002181,"Americas","Eastern Caribbean","Barbados","Reef Check","RC","2004,2005","59.32.471W.13.3.0N","Oistins",13.05,-59.5411944444444,"","Reef Check Foundation, rcdata@reefcheck.org","BRB"
"NA.12",NA,NA,NA,NA,NA,NA,NA,NA,NA,NA,NA,NA,NA,NA
"349",9002187,"Americas","Eastern Caribbean","Barbados","Reef Check","RC","2003","59.37W.13.50.22N","Port St. Charles",13.8394444444444,-59.6166666666667,"","Reef Check Foundation, rcdata@reefcheck.org","BRB"
"NA.13",NA,NA,NA,NA,NA,NA,NA,NA,NA,NA,NA,NA,NA,NA
"351",9002196,"Americas","Eastern Caribbean","Barbados","Reef Check","RC","2001","59.38W.13.11N","South Bellairs",13.1833333333333,-59.6333333333333,"","Reef Check Foundation, rcdata@reefcheck.org","BRB"
"352",9000949,"Americas","Eastern Caribbean","Barbados","Reef Check","RC","1997","13N59W3","South Bellairs",13.1358333333333,-59.6388888888889,"","Reef Check Foundation, rcdata@reefcheck.org","BRB"
"NA.14",NA,NA,NA,NA,NA,NA,NA,NA,NA,NA,NA,NA,NA,NA
"354",19,"Americas","Eastern Caribbean","Barbados","Socioeconomic","SOCMON","","5","Barbados",13.16667,-59.53333,"","Angela Watson","BRB"
"355",9001327,"Americas","Eastern Caribbean","Dominica","Reef Check","RC","2004,2006","16.22.16W.15.14.21N","Champagne Outer",15.2391666666667,-61.3711111111111,"","Reef Check Foundation, rcdata@reefcheck.org","DMA"
"356",9002247,"Americas","Eastern Caribbean","Dominica","Reef Check","RC","2004,2006","61.22.206W.15.14.213N","La Bym",15.2368888888889,-61.3701111111111,"","Reef Check Foundation, rcdata@reefcheck.org","DMA"
"357",9002252,"Americas","Eastern Caribbean","Dominica","Reef Check","RC","2006","61.26.741W.15.26.317N","Lauro Reef",15.4386111111111,-61.4456944444444,"","Reef Check Foundation, rcdata@reefcheck.org","DMA"
"358",9002253,"Americas","Eastern Caribbean","Dominica","Reef Check","RC","2006","61.27.216W.15.26.490N","Rinas Hole",15.4415,-61.4536111111111,"","Reef Check Foundation, rcdata@reefcheck.org","DMA"
"359",9002254,"Americas","Eastern Caribbean","Dominica","Reef Check","RC","2006","61.28.309W.15.35.448N","Rose Garden",15.5908055555556,-61.4718055555556,"","Reef Check Foundation, rcdata@reefcheck.org","DMA"
"360",9002248,"Americas","Eastern Caribbean","Dominica","Reef Check","RC","2007","61.22.289W.15.16.228N","Solomon A",15.2704722222222,-61.3714722222222,"","Reef Check Foundation, rcdata@reefcheck.org","DMA"
"361",9002249,"Americas","Eastern Caribbean","Dominica","Reef Check","RC","2007","61.22.345W.15.16.775N","Solomon B",15.2795833333333,-61.3724166666667,"","Reef Check Foundation, rcdata@reefcheck.org","DMA"
"362",9002251,"Americas","Eastern Caribbean","Dominica","Reef Check","RC","2008","61.22.599W.15.16.166N","Solomon Reef Site A",15.2694444444444,-61.3766388888889,"","Reef Check Foundation, rcdata@reefcheck.org","DMA"
"363",9002250,"Americas","Eastern Caribbean","Dominica","Reef Check","RC","2008","61.22.523W.15.16.363N","Solomon Reef Site B",15.2727222222222,-61.3753888888889,"","Reef Check Foundation, rcdata@reefcheck.org","DMA"
"364",9002255,"Americas","Eastern Caribbean","Dominica","Reef Check","RC","2006","61.28.541W.15.34.895N","Sunshine Reef",15.5815833333333,-61.4756944444444,"","Reef Check Foundation, rcdata@reefcheck.org","DMA"
"365",22,"Americas","Eastern Caribbean","Dominica","Socioeconomic","SOCMON","","8","Soufriere Scotts Head Marine Reserve",15.425,-61.275,"","Arun Madisetti","DMA"
"366",9002268,"Americas","Eastern Caribbean","Grenada","Reef Check","RC","2004","61.47.017W.12.01.656N","Boss Reef/Quarter Wreck",12.0276111111111,-61.7836111111111,"","Reef Check Foundation, rcdata@reefcheck.org","GRD"
"NA.15",NA,NA,NA,NA,NA,NA,NA,NA,NA,NA,NA,NA,NA,NA
"368",9002239,"Americas","Eastern Caribbean","Guadeloupe","Reef Check","RC","2008","61.17.6.7W.16.14.23.6N","Aquarium - Indiana",16.2398888888889,-61.2851944444444,"","Reef Check Foundation, rcdata@reefcheck.org","GLP"
"369",9002260,"Americas","Eastern Caribbean","Guadeloupe","Reef Check","RC","2003","61.35.0W.16.21.0N","Ilet a Fijou",16.35,-61.5833333333333,"","Reef Check Foundation, rcdata@reefcheck.org","GLP"
"370",9002259,"Americas","Eastern Caribbean","Guadeloupe","Reef Check","RC","2007,2008","61.32.34.5W.16.25.52.3N","Port Louis, Pointe des Mangles",16.4311944444444,-61.5429166666667,"","Reef Check Foundation, rcdata@reefcheck.org","GLP"
"371",9002223,"Americas","Eastern Caribbean","Martinique","Reef Check","RC","2003","60.57.36W.14.45.30N","Trinite Bay",14.7583333333333,-60.96,"","Reef Check Foundation, rcdata@reefcheck.org","MTQ"
"372",9002272,"Americas","Eastern Caribbean","Montserrat","Reef Check","RC","2007,2008","62.12.419W.16.48.590N","Rendezvous Bay Reef",16.8098333333333,-62.2069722222222,"","Reef Check Foundation, rcdata@reefcheck.org","MSR"
"373",9002273,"Americas","Eastern Caribbean","Montserrat","Reef Check","RC","2005","62.13.27W.16.45.44N","Woodlands",16.7622222222222,-62.2241666666667,"","Reef Check Foundation, rcdata@reefcheck.org","MSR"
"374",8000978,"Americas","Eastern Caribbean","Netherlands Antilles","Caribbean Coastal Marine Productivity Program","CARICOMP","1994, 1995, 1996, 1997","","Barcadera 12N068W0030",12.1958303451538,-68.3,"12","Dulcie Linton, dmlinton@uwimona.edu.jm","ANT"
"375",9002277,"Americas","Eastern Caribbean","Netherlands Antilles","Reef Check","RC","2005,2006,2007,2008","62.59.27W.17.28.1N","Barracuda Reef Line 1",17.4669444444444,-62.9908333333333,"","Reef Check Foundation, rcdata@reefcheck.org","ANT"
"376",9002278,"Americas","Eastern Caribbean","Netherlands Antilles","Reef Check","RC","2005,2006,2007","62.59.2W.17.28N","Barracuda Reef Line 2",17.4669444444444,-62.9908333333333,"","Reef Check Foundation, rcdata@reefcheck.org","ANT"
"377",9002344,"Americas","Eastern Caribbean","Netherlands Antilles","Reef Check","RC","2003,2004,2005","68.53.42W.12.05.16N","Curacao Sea Aquarium House Reef, Plot A #1",12.0877777777778,-68.895,"","Reef Check Foundation, rcdata@reefcheck.org","ANT"
"378",9002340,"Americas","Eastern Caribbean","Netherlands Antilles","Reef Check","RC","2008","68.45.3.04W.12.2.27.47N","Eastpoint",12.0409722222222,-68.7508333333333,"","Reef Check Foundation, rcdata@reefcheck.org","ANT"
"379",9002290,"Americas","Eastern Caribbean","Netherlands Antilles","Reef Check","RC","2007","63.5.34.96W.18.01.15.09N","Frenchman Reef",18.0208611111111,-63.0930555555556,"","Reef Check Foundation, rcdata@reefcheck.org","ANT"
"380",9002291,"Americas","Eastern Caribbean","Netherlands Antilles","Reef Check","RC","2007","63.8.16W.18.2.47N","Gregory",18.0463888888889,-63.1377777777778,"","Reef Check Foundation, rcdata@reefcheck.org","ANT"
"381",9002343,"Americas","Eastern Caribbean","Netherlands Antilles","Reef Check","RC","2003,2008","68.52.45.1W.12.4.28.3N","Jan Thiel East",12.0745277777778,-68.8791944444444,"","Reef Check Foundation, rcdata@reefcheck.org","ANT"
"382",9002338,"Americas","Eastern Caribbean","Netherlands Antilles","Reef Check","RC","2000,2001,2002,2003","68.21.34.4W.12.13.10.1N","Karpata Reserve",12.2194722222222,-68.3595555555555,"","Reef Check Foundation, rcdata@reefcheck.org","ANT"
"383",9002288,"Americas","Eastern Caribbean","Netherlands Antilles","Reef Check","RC","2006","63.3.35.9W.17.59.22.4N","Mike's Maze 1",17.9895555555556,-63.0599722222222,"","Reef Check Foundation, rcdata@reefcheck.org","ANT"
"384",9002275,"Americas","Eastern Caribbean","Netherlands Antilles","Reef Check","RC","2005,2006,2007,2008","62.58.39W.17.27.46N","Mushroom Garden Line 1",17.4627777777778,-62.9775,"","Reef Check Foundation, rcdata@reefcheck.org","ANT"
"385",9002276,"Americas","Eastern Caribbean","Netherlands Antilles","Reef Check","RC","2005,2006,2007","62.58.3W.17.27.4N","Mushroom Garden Line 2",17.4627777777778,-62.9775,"","Reef Check Foundation, rcdata@reefcheck.org","ANT"
"386",9000919,"Americas","Eastern Caribbean","Netherlands Antilles","Reef Check","RC","1998","12N68W2","Oostpunt",12.0413888888889,-68.7499444444445,"","Reef Check Foundation, rcdata@reefcheck.org","ANT"
"387",9002366,"Americas","Eastern Caribbean","Netherlands Antilles","Reef Check","RC","1998,2003","69.50.230W.12.13.19N","Portomari",12.2198888888889,-69.0871111111111,"","Reef Check Foundation, rcdata@reefcheck.org","ANT"
"388",9002348,"Americas","Eastern Caribbean","Netherlands Antilles","Reef Check","RC","2008","69.05.15.96W.12.13.8.6N","Portomari",12.2190555555556,-69.0877777777778,"","Reef Check Foundation, rcdata@reefcheck.org","ANT"
"389",9002363,"Americas","Eastern Caribbean","Netherlands Antilles","Reef Check","RC","2002,2003,2004,2005,2006,2007,2008","69.5.248W.12.13.116N","PortoMari Transect 1",12.2186111111111,-69.0874722222222,"","Reef Check Foundation, rcdata@reefcheck.org","ANT"
"390",9002350,"Americas","Eastern Caribbean","Netherlands Antilles","Reef Check","RC","2002,2003,2004,2005,2006,2007,2008","69.05.236W.12.13.121N","PortoMari Transect 2",12.2186111111111,-69.0872222222222,"","Reef Check Foundation, rcdata@reefcheck.org","ANT"
"391",9002349,"Americas","Eastern Caribbean","Netherlands Antilles","Reef Check","RC","2002,2003,2004,2005,2006,2007,2008","69.05.199W.12.13.089N","PortoMari Transect 3",12.2181388888889,-69.0866388888889,"","Reef Check Foundation, rcdata@reefcheck.org","ANT"
"392",9002374,"Americas","Eastern Caribbean","Netherlands Antilles","Reef Check","RC","2008","69.8.42.35W.12.16.44.74N","Pos Spano",12.2790833333333,-69.1451111111111,"","Reef Check Foundation, rcdata@reefcheck.org","ANT"
"393",9002351,"Americas","Eastern Caribbean","Netherlands Antilles","Reef Check","RC","1998,2000,2003","69.08.697W.12.16.847N","Pos Spano",12.2807777777778,-69.1449444444444,"","Reef Check Foundation, rcdata@reefcheck.org","ANT"
"394",9002339,"Americas","Eastern Caribbean","Netherlands Antilles","Reef Check","RC","2001","68.25.12.9W.12.15.41.5N","Slagbaii Reserve",12.2615277777778,-68.42025,"","Reef Check Foundation, rcdata@reefcheck.org","ANT"
"395",9002365,"Americas","Eastern Caribbean","Netherlands Antilles","Reef Check","RC","2008","69.50.13.8W.12.8.22.5N","Slangenbaai",12.1395833333333,-69.8371666666667,"","Reef Check Foundation, rcdata@reefcheck.org","ANT"
"396",9002364,"Americas","Eastern Caribbean","Netherlands Antilles","Reef Check","RC","1998,2000,2003","69.50.13.8W.12.08.22.5N","Slangenbaai",12.1393611111111,-68.9972222222222,"","Reef Check Foundation, rcdata@reefcheck.org","ANT"
"397",9002373,"Americas","Eastern Caribbean","Netherlands Antilles","Reef Check","RC","2008","69.7.52.54W.12.16.3.47N","Sta. Martha West",12.2676388888889,-69.13125,"","Reef Check Foundation, rcdata@reefcheck.org","ANT"
"398",9000918,"Americas","Eastern Caribbean","Netherlands Antilles","Reef Check","RC","1997,1998","12N68W1","Twin Peaks",12.2666666666667,-68.4222222222222,"","Reef Check Foundation, rcdata@reefcheck.org","ANT"
"399",9002352,"Americas","Eastern Caribbean","Netherlands Antilles","Reef Check","RC","2000,2003,2008","69.09.601W12.23.090N","Watamula Reef",12.3848333333333,-69.1600277777778,"","Reef Check Foundation, rcdata@reefcheck.org","ANT"
"400",96001571,"Americas","Eastern Caribbean","Netherlands Antilles","Reef Keeper Coral Reef Monitoring","RKCRM","","","18th Palm Reef ",12.1371002197266,-68.2781,"10","Alexander Stone, reefkeeper@earthlink.net","ANT"
"401",96001573,"Americas","Eastern Caribbean","Netherlands Antilles","Reef Keeper Coral Reef Monitoring","RKCRM","","","Bachelor Beach Reef ",12.1736669540405,-67.71,"10","Alexander Stone, reefkeeper@earthlink.net","ANT"
"402",96001578,"Americas","Eastern Caribbean","Netherlands Antilles","Reef Keeper Coral Reef Monitoring","RKCRM","","","Cliff reef ",12.1734504699707,-67.71,"10","Alexander Stone, reefkeeper@earthlink.net","ANT"
"403",96001584,"Americas","Eastern Caribbean","Netherlands Antilles","Reef Keeper Coral Reef Monitoring","RKCRM","1999, 2000, 2001","","Hens and Chickens Reef",18.1772212982178,-63.131944,"6","Alexander Stone, reefkeeper@earthlink.net","ANT"
"404",96001588,"Americas","Eastern Caribbean","Netherlands Antilles","Reef Keeper Coral Reef Monitoring","RKCRM","","","Karpata",12.2183332443237,-68.352833333,"10","Alexander Stone, reefkeeper@earthlink.net","ANT"
"405",96001593,"Americas","Eastern Caribbean","Netherlands Antilles","Reef Keeper Coral Reef Monitoring","RKCRM","1999, 2000, 2001","","Mike's Maze Reef",17.9899997711182,-63.05555,"","Alexander Stone, reefkeeper@earthlink.net","ANT"
"406",96001594,"Americas","Eastern Caribbean","Netherlands Antilles","Reef Keeper Coral Reef Monitoring","RKCRM","1999, 2000, 2001","","Molly's Bithday Reef",18.116943359375,-62.01111,"","Alexander Stone, reefkeeper@earthlink.net","ANT"
"407",96001607,"Americas","Eastern Caribbean","Netherlands Antilles","Reef Keeper Coral Reef Monitoring","RKCRM","","","Something Special Reef ",12.1736669540405,-67.70995,"10","Alexander Stone, reefkeeper@earthlink.net","ANT"
"408",96001608,"Americas","Eastern Caribbean","Netherlands Antilles","Reef Keeper Coral Reef Monitoring","RKCRM","","","South Gardens Reef",18.3788166046143,-66.51605,"15","Alexander Stone, reefkeeper@earthlink.net","ANT"
"409",10002065,"Americas","Eastern Caribbean","Netherlands Antilles (Leeward)","Atlantic and Gulf Rapid Reef Assessment","AGRRA","","","Barcadera",12.2004995346069,-68.30833,"","Robert Ginsburg, rginsburg@rsmas.miami.edu","ANT_L"
"410",10002066,"Americas","Eastern Caribbean","Netherlands Antilles (Leeward)","Atlantic and Gulf Rapid Reef Assessment","AGRRA","","","Carl's Jam",12.1658334732056,-68.3266666666667,"","Robert Ginsburg, rginsburg@rsmas.miami.edu","ANT_L"
"411",10002324,"Americas","Eastern Caribbean","Netherlands Antilles (Leeward)","Atlantic and Gulf Rapid Reef Assessment","AGRRA","","","Habitat",12.2004995346069,-68.30833,"","Robert Ginsburg, rginsburg@rsmas.miami.edu","ANT_L"
"412",10002067,"Americas","Eastern Caribbean","Netherlands Antilles (Leeward)","Atlantic and Gulf Rapid Reef Assessment","AGRRA","","","Karpata",12.2183332443237,-68.3528333333333,"","Robert Ginsburg, rginsburg@rsmas.miami.edu","ANT_L"
"413",10002068,"Americas","Eastern Caribbean","Netherlands Antilles (Leeward)","Atlantic and Gulf Rapid Reef Assessment","AGRRA","","","Twin Peaks",12.2583332061768,-68.4275,"","Robert Ginsburg, rginsburg@rsmas.miami.edu","ANT_L"
"414",10002325,"Americas","Eastern Caribbean","Netherlands Antilles (Leeward)","Atlantic and Gulf Rapid Reef Assessment","AGRRA","","","W. KLEIN(REAL)",12.164999961853,-68.33,"","Robert Ginsburg, rginsburg@rsmas.miami.edu","ANT_L"
"415",8000980,"Americas","Eastern Caribbean","Netherlands Antilles (Leeward)","Caribbean Coastal Marine Productivity Program","CARICOMP","1994, 1995","","Spaanse Water ( Spanish Water ) 12N068W0028",12.0500001907349,-68.86667,"","Dulcie Linton, dmlinton@uwimona.edu.jm","ANT_L"
"416",134004689,"Americas","Eastern Caribbean","Netherlands Antilles (Leeward)","Porto Mari Reef Ball Project","PMRBP","2001 (partially), 2002, 2003","","Porto Mari Transect #1",12.1311597824097,-69.05248,"12","Paul Spiertz, paul@portomari.com","ANT_L"
"417",134004690,"Americas","Eastern Caribbean","Netherlands Antilles (Leeward)","Porto Mari Reef Ball Project","PMRBP","2001 (partially), 2002, 2003","","Porto Mari Transect #2",12.1312103271484,-69.05236,"6","Paul Spiertz, paul@portomari.com","ANT_L"
"418",134004691,"Americas","Eastern Caribbean","Netherlands Antilles (Leeward)","Porto Mari Reef Ball Project","PMRBP","2001 (partially), 2002, 2003","","Porto Mari Transect #3",12.1308898925781,-69.05199,"10","Paul Spiertz, paul@portomari.com","ANT_L"
"419",108001565,"Americas","Eastern Caribbean","Netherlands Antilles (Leeward)","Reef Care","ReefCare","1997, 1998, 1999, 2000, 2001","","Curacao- Watamula",12.3848333358765,-68.839983,"12","Theo v/d Giessen, reefcare@cura.net","ANT_L"
"420",108001569,"Americas","Eastern Caribbean","Netherlands Antilles (Leeward)","Reef Care","ReefCare","1997, 1998, 1999, 2000, 2001 (?)","","Ootspunt",12.0415000915527,-67.25005,"12","Theo v/d Giessen, reefcare@cura.net","ANT_L"
"421",108001567,"Americas","Eastern Caribbean","Netherlands Antilles (Leeward)","Reef Care","ReefCare","1997, 1998, 1999, 2000, 2001","","Porto Marie Reef",12.2198333740234,-68.85505,"12","Theo v/d Giessen, reefcare@cura.net","ANT_L"
"422",108001566,"Americas","Eastern Caribbean","Netherlands Antilles (Leeward)","Reef Care","ReefCare","1997, 1998, 1999, 2000, 2001","","Pos Spaño Reef",12.2807836532593,-68.85505,"12","Theo v/d Giessen, reefcare@cura.net","ANT_L"
"423",108001568,"Americas","Eastern Caribbean","Netherlands Antilles (Leeward)","Reef Care","ReefCare","1997, 1998, 1999, 2000, 2001","","Slangenbaii",12.1383657455444,-67.003,"12","Theo v/d Giessen, reefcare@cura.net","ANT_L"
"424",10002172,"Americas","Eastern Caribbean","Netherlands Antilles (Windward)","Atlantic and Gulf Rapid Reef Assessment","AGRRA","","","Anchor Point",17.4631671905518,-62.9871666,"","Robert Ginsburg, rginsburg@rsmas.miami.edu","ANT_W"
"425",10002163,"Americas","Eastern Caribbean","Netherlands Antilles (Windward)","Atlantic and Gulf Rapid Reef Assessment","AGRRA","","","Babylon",17.6281661987305,-63.2595,"","Robert Ginsburg, rginsburg@rsmas.miami.edu","ANT_W"
"426",10002173,"Americas","Eastern Caribbean","Netherlands Antilles (Windward)","Atlantic and Gulf Rapid Reef Assessment","AGRRA","","","Barracuda Reef",17.4675006866455,-62.9906666,"","Robert Ginsburg, rginsburg@rsmas.miami.edu","ANT_W"
"427",10002175,"Americas","Eastern Caribbean","Netherlands Antilles (Windward)","Atlantic and Gulf Rapid Reef Assessment","AGRRA","","","Five Fingers",17.4648342132568,-62.96666667,"","Robert Ginsburg, rginsburg@rsmas.miami.edu","ANT_W"
"428",10002164,"Americas","Eastern Caribbean","Netherlands Antilles (Windward)","Atlantic and Gulf Rapid Reef Assessment","AGRRA","","","Gore Gut",17.6308326721191,-63.215,"","Robert Ginsburg, rginsburg@rsmas.miami.edu","ANT_W"
"429",10002165,"Americas","Eastern Caribbean","Netherlands Antilles (Windward)","Atlantic and Gulf Rapid Reef Assessment","AGRRA","","","Green Island",17.6496658325195,-63.228,"","Robert Ginsburg, rginsburg@rsmas.miami.edu","ANT_W"
"430",10002176,"Americas","Eastern Caribbean","Netherlands Antilles (Windward)","Atlantic and Gulf Rapid Reef Assessment","AGRRA","","","Hangover",17.4648342132568,-62.986,"","Robert Ginsburg, rginsburg@rsmas.miami.edu","ANT_W"
"431",10002181,"Americas","Eastern Caribbean","Netherlands Antilles (Windward)","Atlantic and Gulf Rapid Reef Assessment","AGRRA","","","Hens and Chickens Reef",18.0106658935547,-63.008,"","Robert Ginsburg, rginsburg@rsmas.miami.edu","ANT_W"
"432",10002166,"Americas","Eastern Caribbean","Netherlands Antilles (Windward)","Atlantic and Gulf Rapid Reef Assessment","AGRRA","","","Hole in Corner",17.6166667938232,-63.2273333,"","Robert Ginsburg, rginsburg@rsmas.miami.edu","ANT_W"
"433",10002167,"Americas","Eastern Caribbean","Netherlands Antilles (Windward)","Atlantic and Gulf Rapid Reef Assessment","AGRRA","","","Hot Springs",17.6248340606689,-63.2595,"","Robert Ginsburg, rginsburg@rsmas.miami.edu","ANT_W"
"434",10002168,"Americas","Eastern Caribbean","Netherlands Antilles (Windward)","Atlantic and Gulf Rapid Reef Assessment","AGRRA","","","Ladder Labyrinth",17.6259994506836,-63.2605,"","Robert Ginsburg, rginsburg@rsmas.miami.edu","ANT_W"
"435",10002178,"Americas","Eastern Caribbean","Netherlands Antilles (Windward)","Atlantic and Gulf Rapid Reef Assessment","AGRRA","","","Ledges",17.4633331298828,-62.9848333,"","Robert Ginsburg, rginsburg@rsmas.miami.edu","ANT_W"
"436",10002182,"Americas","Eastern Caribbean","Netherlands Antilles (Windward)","Atlantic and Gulf Rapid Reef Assessment","AGRRA","","","Mike's Maze Reef ",17.9895668029785,-63.0599833333333,"","Robert Ginsburg, rginsburg@rsmas.miami.edu","ANT_W"
"437",10002179,"Americas","Eastern Caribbean","Netherlands Antilles (Windward)","Atlantic and Gulf Rapid Reef Assessment","AGRRA","","","Mushroom Gardens",17.4624996185303,-62.97766667,"","Robert Ginsburg, rginsburg@rsmas.miami.edu","ANT_W"
"438",10002169,"Americas","Eastern Caribbean","Netherlands Antilles (Windward)","Atlantic and Gulf Rapid Reef Assessment","AGRRA","","","Porites point",17.6313323974609,-63.258,"","Robert Ginsburg, rginsburg@rsmas.miami.edu","ANT_W"
"439",10002328,"Americas","Eastern Caribbean","Netherlands Antilles (Windward)","Atlantic and Gulf Rapid Reef Assessment","AGRRA","","","Saba Bank 1",17.4629325866699,-63.2226333333333,"","Robert Ginsburg, rginsburg@rsmas.miami.edu","ANT_W"
"440",10002329,"Americas","Eastern Caribbean","Netherlands Antilles (Windward)","Atlantic and Gulf Rapid Reef Assessment","AGRRA","","","Saba Bank 2",17.4867992401123,-63.2316333333333,"","Robert Ginsburg, rginsburg@rsmas.miami.edu","ANT_W"
"441",10002330,"Americas","Eastern Caribbean","Netherlands Antilles (Windward)","Atlantic and Gulf Rapid Reef Assessment","AGRRA","","","Saba Bank 3",17.487850189209,-63.5156666666667,"","Robert Ginsburg, rginsburg@rsmas.miami.edu","ANT_W"
"442",10002170,"Americas","Eastern Caribbean","Netherlands Antilles (Windward)","Atlantic and Gulf Rapid Reef Assessment","AGRRA","","","Tent Reef",17.6165008544922,-63.2566666,"","Robert Ginsburg, rginsburg@rsmas.miami.edu","ANT_W"
"443",10002174,"Americas","Eastern Caribbean","Netherlands Antilles (Windward)","Atlantic and Gulf Rapid Reef Assessment","AGRRA","","","The Blocks",17.4643325805664,-62.985,"","Robert Ginsburg, rginsburg@rsmas.miami.edu","ANT_W"
"444",10002177,"Americas","Eastern Caribbean","Netherlands Antilles (Windward)","Atlantic and Gulf Rapid Reef Assessment","AGRRA","","","The Humps,",17.4634990692139,-62.9781666,"","Robert Ginsburg, rginsburg@rsmas.miami.edu","ANT_W"
"445",10002171,"Americas","Eastern Caribbean","Netherlands Antilles (Windward)","Atlantic and Gulf Rapid Reef Assessment","AGRRA","","","Torrens Point",17.6434993743896,-63.2538333,"","Robert Ginsburg, rginsburg@rsmas.miami.edu","ANT_W"
"446",10002180,"Americas","Eastern Caribbean","Netherlands Antilles (Windward)","Atlantic and Gulf Rapid Reef Assessment","AGRRA","","","Valley of the Sponges",17.4640007019043,-62.9825,"","Robert Ginsburg, rginsburg@rsmas.miami.edu","ANT_W"
"447",8000979,"Americas","Eastern Caribbean","Netherlands Antilles (Windward)","Caribbean Coastal Marine Productivity Program","CARICOMP","1993, 1994, 1995, 1996, 1998","","Ladder Labyrinth 17N063W0010",17.6266708374023,-63.25833,"","Dulcie Linton, dmlinton@uwimona.edu.jm","ANT_W"
"448",50000324,"Americas","Eastern Caribbean","St. Barthélemy","The Marine Reserve St. Barthelemy French West Indies","MRSB-FWI","1996, 1998, 2001","","Gros Islets",17.9069995880127,-62.868,"","Dr. Deborah Brosnan, brosnan@sei.org","GLP_SBA"
"449",50000325,"Americas","Eastern Caribbean","St. Barthélemy","The Marine Reserve St. Barthelemy French West Indies","MRSB-FWI","1996, 1998, 2001","","Ile Fregate",17.9540004730225,-62.826,"","Dr. Deborah Brosnan, brosnan@sei.org","GLP_SBA"
"450",50000326,"Americas","Eastern Caribbean","St. Barthélemy","The Marine Reserve St. Barthelemy French West Indies","MRSB-FWI","1996, 1998, 2001","","Paine de Sucre",17.9009990692139,-62.88,"","Dr. Deborah Brosnan, brosnan@sei.org","GLP_SBA"
"451",9002274,"Americas","Eastern Caribbean","St. Kitts and Nevis","Reef Check","RC","2004","62.43.145W.17.16.486N","Ponds Bar",17.2747777777778,-62.7190833333333,"","Reef Check Foundation, rcdata@reefcheck.org","KNA"
"452",9002267,"Americas","Eastern Caribbean","St. Lucia","Reef Check","RC","1999,2003,2004,2006","61.4.80W.13.51.84N","Anse Chastanet Reef",13.864,-61.08,"","Reef Check Foundation, rcdata@reefcheck.org","LCA"
"453",9002263,"Americas","Eastern Caribbean","St. Lucia","Reef Check","RC","2006","61.4.48W.13.51.45N","Anse Chastanet Reef",13.8575,-61.0746666666667,"","Reef Check Foundation, rcdata@reefcheck.org","LCA"
"454",9002228,"Americas","Eastern Caribbean","St. Lucia","Reef Check","RC","1999,2000,2001,2006","61.04.29W.13.48.93N","Coral Gardens",13.8155,-61.0715,"","Reef Check Foundation, rcdata@reefcheck.org","LCA"
"455",9002231,"Americas","Eastern Caribbean","St. Lucia","Reef Check","RC","2003,2004","61.0755W.13.8100N","Coral Gardens",13.81,-61.0755,"","Reef Check Foundation, rcdata@reefcheck.org","LCA"
"456",9002226,"Americas","Eastern Caribbean","St. Lucia","Reef Check","RC","2003,2004,2006","61.0055W.13.7515N","Flat Land (Laborie)",13.7515,-61.0055,"","Reef Check Foundation, rcdata@reefcheck.org","LCA"
"457",9002265,"Americas","Eastern Caribbean","St. Lucia","Reef Check","RC","2008","61.4.5W.13.51.7N","Grande Caille",13.8616666666667,-61.075,"","Reef Check Foundation, rcdata@reefcheck.org","LCA"
"458",9002225,"Americas","Eastern Caribbean","St. Lucia","Reef Check","RC","2003,2004","61.0035W.13.7540N","Kay Ken (Laborie)",13.754,-61.0035,"","Reef Check Foundation, rcdata@reefcheck.org","LCA"
"459",9002224,"Americas","Eastern Caribbean","St. Lucia","Reef Check","RC","2003,2004,2006","60.9555W.14.1015N","Le Sport Reef",14.1015,-60.9555,"","Reef Check Foundation, rcdata@reefcheck.org","LCA"
"460",9002257,"Americas","Eastern Caribbean","St. Lucia","Reef Check","RC","1999,2001,2005,2006,2007","61.3.9W.13.50.34N","Malgretoute",13.839,-61.065,"","Reef Check Foundation, rcdata@reefcheck.org","LCA"
"461",9002230,"Americas","Eastern Caribbean","St. Lucia","Reef Check","RC","2003,2004","61.0705W.13.8400N","Malgretoute",13.84,-61.0705,"","Reef Check Foundation, rcdata@reefcheck.org","LCA"
"462",9002222,"Americas","Eastern Caribbean","St. Lucia","Reef Check","RC","2002,2003,2004,2006","60.56.7.4W.13.43.13.8N","Maria Islands Nature Reserve",13.7205,-60.9353888888889,"","Reef Check Foundation, rcdata@reefcheck.org","LCA"
"463",9002229,"Americas","Eastern Caribbean","St. Lucia","Reef Check","RC","2005,2006,2007,2008","61.04W.13.51.5N","Rachette Point",13.8583333333333,-61.0666666666667,"","Reef Check Foundation, rcdata@reefcheck.org","LCA"
"464",9002227,"Americas","Eastern Caribbean","St. Lucia","Reef Check","RC","2006","61.04.15W.13.51.4N","Rachette Pointe",13.8566666666667,-61.0691666666667,"","Reef Check Foundation, rcdata@reefcheck.org","LCA"
"465",9002258,"Americas","Eastern Caribbean","St. Lucia","Reef Check","RC","2008","61.3.9W.13.50.3N","Superman's Flight",13.8383333333333,-61.065,"","Reef Check Foundation, rcdata@reefcheck.org","LCA"
"466",9002292,"Americas","Eastern Caribbean","St. Lucia","Reef Check","RC","2005,2006","64.04.20W.13.50.00N","Superman's Flight",13.8333333333333,-64.07,"","Reef Check Foundation, rcdata@reefcheck.org","LCA"
"467",9002262,"Americas","Eastern Caribbean","St. Lucia","Reef Check","RC","2006,2007","61.4.126W.13.49.798N","Superman's Flight",13.8299722222222,-61.0687777777778,"","Reef Check Foundation, rcdata@reefcheck.org","LCA"
"468",9002264,"Americas","Eastern Caribbean","St. Lucia","Reef Check","RC","2000","61.4.51E.13.51.51N","Turtle Reef",13.8585,-61.0751666666667,"","Reef Check Foundation, rcdata@reefcheck.org","LCA"
"469",9002232,"Americas","Eastern Caribbean","St. Lucia","Reef Check","RC","2003,2004","61.08011W.13.8600N","Turtle Reef",13.86,-61.08,"","Reef Check Foundation, rcdata@reefcheck.org","LCA"
"470",9002266,"Americas","Eastern Caribbean","St. Lucia","Reef Check","RC","1999,2006","61.4.77E.13.51.95N","Turtle Reef",13.8658333333333,-61.0795,"","Reef Check Foundation, rcdata@reefcheck.org","LCA"
"471",9002256,"Americas","Eastern Caribbean","St. Lucia","Reef Check","RC","2006,2007","61.3.533W.13.55.741N","Virgin Point, Canaries",13.9290277777778,-61.0588888888889,"","Reef Check Foundation, rcdata@reefcheck.org","LCA"
"472",10002187,"Americas","Eastern Caribbean","St. Vincent and the Grenadines","Atlantic and Gulf Rapid Reef Assessment","AGRRA","","","Horseshoe Reef, Site A",12.6334667205811,-61.3491333333333,"","Robert Ginsburg, rginsburg@rsmas.miami.edu","VCT"
"473",10002185,"Americas","Eastern Caribbean","St. Vincent and the Grenadines","Atlantic and Gulf Rapid Reef Assessment","AGRRA","","","Horseshoe Reef, Site B",12.6334667205811,-61.3491333333333,"","Robert Ginsburg, rginsburg@rsmas.miami.edu","VCT"
